{ "type": "FeatureCollection",
  "features": [
    { "type": "Feature",
      "geometry": {
        "type": "Point", "coordinates": [8.48569537486979, 50.0953781576282]},
        "properties": {"name": "Alte Krifteler Strasse"}
    },
    { "type": "Feature",
      "geometry": {
        "type": "Point", "coordinates": [8.48782196546719, 50.0951627971671]},
        "properties": {"name": "Welschgraben Spielplatz"}
    },
    { "type": "Feature",
      "geometry": {
        "type": "Point", "coordinates": [8.48999714082341, 50.0943182828683]},
        "properties": {"name": "Welschgrabenstrasse"}
    },
    { "type": "Feature",
      "geometry": {
        "type": "Point", "coordinates": [8.49272571271837, 50.093997590232]},
        "properties": {"name": "Zeilsheim Alter Friedhof"}
    },
    { "type": "Feature",
      "geometry": {
        "type": "Point", "coordinates": [8.49365845476265, 50.0930127167774]},
        "properties": {"name": "Blauländchenstr."}
    },
    { "type": "Feature",
      "geometry": {
        "type": "Point", "coordinates": [8.4961388089998, 50.099029093982]},
        "properties": {"name": "Pflugspfad"}
    },
    { "type": "Feature",
      "geometry": {
        "type": "Point", "coordinates": [8.49622837111376, 50.1011512156528]},
        "properties": {"name": "Taunusblick"}
    },
    { "type": "Feature",
      "geometry": {
        "type": "Point", "coordinates": [8.49643736172211, 50.093213599959]},
        "properties": {"name": "Detmolder Platz"}
    },
    { "type": "Feature",
      "geometry": {
        "type": "Point", "coordinates": [8.49767494369813, 50.095142906711]},
        "properties": {"name": "Frankenthaler Weg Neu Zeilsheim"}
    },
    { "type": "Feature",
      "geometry": {
        "type": "Point", "coordinates": [8.49784470877678, 50.1002951388602]},
        "properties": {"name": "Rombergstrasse"}
    },
    { "type": "Feature",
      "geometry": {
        "type": "Point", "coordinates": [8.49913241918208, 50.0907349139284]},
        "properties": {"name": "Steinrutsch"}
    },
    { "type": "Feature",
      "geometry": {
        "type": "Point", "coordinates": [8.49979545127094, 50.0941631165091]},
        "properties": {"name": "Zeilsheim Spielplatz Ecke Neu Zeilsheim"}
    },
    { "type": "Feature",
      "geometry": {
        "type": "Point", "coordinates": [8.50018999456047, 50.0992264099036]},
        "properties": {"name": "Bechtenwaldstrasse"}
    },
    { "type": "Feature",
      "geometry": {
        "type": "Point", "coordinates": [8.50134266232802, 50.0918592374135]},
        "properties": {"name": "Blankenburger Weg"}
    },
    { "type": "Feature",
      "geometry": {
        "type": "Point", "coordinates": [8.50437594291028, 50.0917823202356]},
        "properties": {"name": "West-Höchster-Strasse"}
    },
    { "type": "Feature",
      "geometry": {
        "type": "Point", "coordinates": [8.50490650004624, 50.1013233956781]},
        "properties": {"name": "Am Lachgraben"}
    },
    { "type": "Feature",
      "geometry": {
        "type": "Point", "coordinates": [8.5061582536221, 50.0883286072962]},
        "properties": {"name": "Paul-Kirchof-Platz an Schulbaracken"}
    },
    { "type": "Feature",
      "geometry": {
        "type": "Point", "coordinates": [8.50685720945654, 50.0978344335394]},
        "properties": {"name": "Pfaffenwiese / Lenzenbergstrasse"}
    },
    { "type": "Feature",
      "geometry": {
        "type": "Point", "coordinates": [8.50705676423327, 50.0879188664413]},
        "properties": {"name": "Paul-Kirchhof-Platz Spielplatz"}
    },
    { "type": "Feature",
      "geometry": {
        "type": "Point", "coordinates": [8.5077602151234, 50.0860878067459]},
        "properties": {"name": "Hugo-Kallenbach-Strasse"}
    },
    { "type": "Feature",
      "geometry": {
        "type": "Point", "coordinates": [8.50900119752502, 50.0795030847693]},
        "properties": {"name": "Am Hofheimer Weg"}
    },
    { "type": "Feature",
      "geometry": {
        "type": "Point", "coordinates": [8.50979373585533, 50.0894678136374]},
        "properties": {"name": "Sindlingen, ehemalige Kiesgrube"}
    },
    { "type": "Feature",
      "geometry": {
        "type": "Point", "coordinates": [8.51018474918342, 50.0826367501256]},
        "properties": {"name": "Kleingartenpark Sindlingen"}
    },
    { "type": "Feature",
      "geometry": {
        "type": "Point", "coordinates": [8.51008271180861, 50.099502319355]},
        "properties": {"name": "Friedenau"}
    },
    { "type": "Feature",
      "geometry": {
        "type": "Point", "coordinates": [8.51078215657125, 50.0815963802611]},
        "properties": {"name": "Hoechster-Farben-Str. Grünstreifen"}
    },
    { "type": "Feature",
      "geometry": {
        "type": "Point", "coordinates": [8.51098316574749, 50.0796912578256]},
        "properties": {"name": "Westenbergerstrasse Ecke Steinmetzstrasse"}
    },
    { "type": "Feature",
      "geometry": {
        "type": "Point", "coordinates": [8.51165328312943, 50.0879922320179]},
        "properties": {"name": "Richard-Weidlich Platz"}
    },
    { "type": "Feature",
      "geometry": {
        "type": "Point", "coordinates": [8.51303311455613, 50.0842040733016]},
        "properties": {"name": "Höchster Farbenstrasse Am Sportplatz"}
    },
    { "type": "Feature",
      "geometry": {
        "type": "Point", "coordinates": [8.51359087627624, 50.0815542382892]},
        "properties": {"name": "Grünzug Hermann Brill"}
    },
    { "type": "Feature",
      "geometry": {
        "type": "Point", "coordinates": [8.51397341467536, 50.0782653460527]},
        "properties": {"name": "Allesinastrasse mit Kriegerdenkmal"}
    },
    { "type": "Feature",
      "geometry": {
        "type": "Point", "coordinates": [8.514601031885, 50.0852894882457]},
        "properties": {"name": "Sindlingen Kreisel West"}
    },
    { "type": "Feature",
      "geometry": {
        "type": "Point", "coordinates": [8.5156006651936, 50.0734442871137]},
        "properties": {"name": "Okrifteler Strasse/ B 40"}
    },
    { "type": "Feature",
      "geometry": {
        "type": "Point", "coordinates": [8.516642370718, 50.0698704361822]},
        "properties": {"name": "Roter Weg"}
    },
    { "type": "Feature",
      "geometry": {
        "type": "Point", "coordinates": [8.51737144214473, 50.0807339057229]},
        "properties": {"name": "Sindlinger Bahnstrasse Vor dem Hotel"}
    },
    { "type": "Feature",
      "geometry": {
        "type": "Point", "coordinates": [8.5187499594175, 50.0811981390373]},
        "properties": {"name": "Farbenstr. Sindlingen"}
    },
    { "type": "Feature",
      "geometry": {
        "type": "Point", "coordinates": [8.51874971158784, 50.082618623904]},
        "properties": {"name": "Grünverbindung Mainanlage-Pfingstbornstrasse"}
    },
    { "type": "Feature",
      "geometry": {
        "type": "Point", "coordinates": [8.51873165310787, 50.0927956910487]},
        "properties": {"name": "Höchster Farben Str. Von Leuna- Kreisel bis Kreis"}
    },
    { "type": "Feature",
      "geometry": {
        "type": "Point", "coordinates": [8.52075335632339, 50.0806490196395]},
        "properties": {"name": "Feierabendweg Spielplatz"}
    },
    { "type": "Feature",
      "geometry": {
        "type": "Point", "coordinates": [8.52347065258704, 50.0714989607972]},
        "properties": {"name": "Sindlinger Mainufer"}
    },
    { "type": "Feature",
      "geometry": {
        "type": "Point", "coordinates": [8.52444355849273, 50.1115372053172]},
        "properties": {"name": "Schmalkaldener Strasse/ A66"}
    },
    { "type": "Feature",
      "geometry": {
        "type": "Point", "coordinates": [8.52594449097763, 50.1096104121523]},
        "properties": {"name": "Schmalkaldener Strasse"}
    },
    { "type": "Feature",
      "geometry": {
        "type": "Point", "coordinates": [8.52814315836488, 50.1120647473428]},
        "properties": {"name": "Geißspitze"}
    },
    { "type": "Feature",
      "geometry": {
        "type": "Point", "coordinates": [8.52879876053348, 50.1050908793404]},
        "properties": {"name": "Hunsrueckstrasse"}
    },
    { "type": "Feature",
      "geometry": {
        "type": "Point", "coordinates": [8.52890962592696, 50.1108901207211]},
        "properties": {"name": "Graubner Park"}
    },
    { "type": "Feature",
      "geometry": {
        "type": "Point", "coordinates": [8.52936704713749, 50.1127170202009]},
        "properties": {"name": "Sportanlage Unterliederbach"}
    },
    { "type": "Feature",
      "geometry": {
        "type": "Point", "coordinates": [8.53123005934456, 50.1109174912836]},
        "properties": {"name": "Liederbacher Strasse / Heugasse"}
    },
    { "type": "Feature",
      "geometry": {
        "type": "Point", "coordinates": [8.5318444140017, 50.1095624236243]},
        "properties": {"name": "Wartburgstrasse"}
    },
    { "type": "Feature",
      "geometry": {
        "type": "Point", "coordinates": [8.53436286627485, 50.1064618798808]},
        "properties": {"name": "Otto-Ernst-Weg"}
    },
    { "type": "Feature",
      "geometry": {
        "type": "Point", "coordinates": [8.53433327529785, 50.1152813130864]},
        "properties": {"name": "Königssteiner Straße ecke Cheruskerweg"}
    },
    { "type": "Feature",
      "geometry": {
        "type": "Point", "coordinates": [8.53447267630109, 50.109555008534]},
        "properties": {"name": "Wasgaustrasse"}
    },
    { "type": "Feature",
      "geometry": {
        "type": "Point", "coordinates": [8.53487352125826, 50.1042522935408]},
        "properties": {"name": "Peter-Biedstrasse Bunkerbegrünung"}
    },
    { "type": "Feature",
      "geometry": {
        "type": "Point", "coordinates": [8.53588284470208, 50.1082930105231]},
        "properties": {"name": "Am Liederbach zwischen Johannesallee und Liederbacher Strasse"}
    },
    { "type": "Feature",
      "geometry": {
        "type": "Point", "coordinates": [8.53627670172399, 50.1152800991125]},
        "properties": {"name": "Engelsruhe"}
    },
    { "type": "Feature",
      "geometry": {
        "type": "Point", "coordinates": [8.53810268860939, 50.1144063204749]},
        "properties": {"name": "Chattenweg/ Langobardenweg"}
    },
    { "type": "Feature",
      "geometry": {
        "type": "Point", "coordinates": [8.53835751692024, 50.1155311289322]},
        "properties": {"name": "An Engelsruhe 67a"}
    },
    { "type": "Feature",
      "geometry": {
        "type": "Point", "coordinates": [8.53855879795493, 50.1033140158308]},
        "properties": {"name": "Gebeschusstr."}
    },
    { "type": "Feature",
      "geometry": {
        "type": "Point", "coordinates": [8.53881909461363, 50.1067763449527]},
        "properties": {"name": "Am Liederbach zwischen Peter-Bied und Johannisallee"}
    },
    { "type": "Feature",
      "geometry": {
        "type": "Point", "coordinates": [8.53933645041986, 50.1169644833025]},
        "properties": {"name": "Cheruskerweg Straßenspielplatz"}
    },
    { "type": "Feature",
      "geometry": {
        "type": "Point", "coordinates": [8.53997811254449, 50.099606619226]},
        "properties": {"name": "Leunastr."}
    },
    { "type": "Feature",
      "geometry": {
        "type": "Point", "coordinates": [8.54015325247246, 50.1032124561555]},
        "properties": {"name": "Adelonstrasse"}
    },
    { "type": "Feature",
      "geometry": {
        "type": "Point", "coordinates": [8.54027986858507, 50.101666612027]},
        "properties": {"name": "Adolf-Häuser-Straße"}
    },
    { "type": "Feature",
      "geometry": {
        "type": "Point", "coordinates": [8.54137194918697, 50.1117221681328]},
        "properties": {"name": "Grauer Stein"}
    },
    { "type": "Feature",
      "geometry": {
        "type": "Point", "coordinates": [8.54188062825786, 50.1140886416473]},
        "properties": {"name": "Rugierstraße an Haus 66"}
    },
    { "type": "Feature",
      "geometry": {
        "type": "Point", "coordinates": [8.54228718483795, 50.0978356473392]},
        "properties": {"name": "Höchst Alter Friedhof"}
    },
    { "type": "Feature",
      "geometry": {
        "type": "Point", "coordinates": [8.5422217641694, 50.1179018991556]},
        "properties": {"name": "Cheruskerweg Bolzplatz"}
    },
    { "type": "Feature",
      "geometry": {
        "type": "Point", "coordinates": [8.54237460666664, 50.1018636839517]},
        "properties": {"name": "Dalbergstraße"}
    },
    { "type": "Feature",
      "geometry": {
        "type": "Point", "coordinates": [8.54470889808627, 50.0767806538216]},
        "properties": {"name": "Kelsterbacher Knoten Plan 1"}
    },
    { "type": "Feature",
      "geometry": {
        "type": "Point", "coordinates": [8.54485294107657, 50.0984570786561]},
        "properties": {"name": "Rudolf-Schäfer-Anlage (Stadtgarten)"}
    },
    { "type": "Feature",
      "geometry": {
        "type": "Point", "coordinates": [8.54494491063258, 50.1123565587301]},
        "properties": {"name": "Sieringstrasse Spielplatz"}
    },
    { "type": "Feature",
      "geometry": {
        "type": "Point", "coordinates": [8.54551347208522, 50.1025053378503]},
        "properties": {"name": "Bruno-Asch-Anlage/Dalbergplatz"}
    },
    { "type": "Feature",
      "geometry": {
        "type": "Point", "coordinates": [8.54581904384736, 50.0820084328012]},
        "properties": {"name": "Albertslach Schwanheim"}
    },
    { "type": "Feature",
      "geometry": {
        "type": "Point", "coordinates": [8.54571584591764, 50.0973636305391]},
        "properties": {"name": "Brüningpark"}
    },
    { "type": "Feature",
      "geometry": {
        "type": "Point", "coordinates": [8.546422637127, 50.0994791340334]},
        "properties": {"name": "Wed"}
    },
    { "type": "Feature",
      "geometry": {
        "type": "Point", "coordinates": [8.54688140879545, 50.0982582328]},
        "properties": {"name": "Höchst Burggraben"}
    },
    { "type": "Feature",
      "geometry": {
        "type": "Point", "coordinates": [8.54769683646604, 50.0977489598355]},
        "properties": {"name": "Mainufer Höchst"}
    },
    { "type": "Feature",
      "geometry": {
        "type": "Point", "coordinates": [8.54809763005386, 50.1130880986757]},
        "properties": {"name": "Vor Windthorststrasse 113"}
    },
    { "type": "Feature",
      "geometry": {
        "type": "Point", "coordinates": [8.54818944585636, 50.1063007283797]},
        "properties": {"name": "Höchst Gerlachstrasse"}
    },
    { "type": "Feature",
      "geometry": {
        "type": "Point", "coordinates": [8.54842619804974, 50.1049081413085]},
        "properties": {"name": "Konrad-Glatt Straße"}
    },
    { "type": "Feature",
      "geometry": {
        "type": "Point", "coordinates": [8.5485822490961, 50.0987143764402]},
        "properties": {"name": "Justinuskirchgarten"}
    },
    { "type": "Feature",
      "geometry": {
        "type": "Point", "coordinates": [8.54906184502357, 50.1131367984936]},
        "properties": {"name": "Windthorststraße an Haus 100"}
    },
    { "type": "Feature",
      "geometry": {
        "type": "Point", "coordinates": [8.54913427844784, 50.1128673688578]},
        "properties": {"name": "Windthorststraße an Haus 94"}
    },
    { "type": "Feature",
      "geometry": {
        "type": "Point", "coordinates": [8.54924445488697, 50.1070869906087]},
        "properties": {"name": "Höchst Gerlachstrasse vor der Robert-Blum-Schule"}
    },
    { "type": "Feature",
      "geometry": {
        "type": "Point", "coordinates": [8.5494646260417, 50.1029882342299]},
        "properties": {"name": "Kasinostraße"}
    },
    { "type": "Feature",
      "geometry": {
        "type": "Point", "coordinates": [8.5502077703205, 50.0997545782619]},
        "properties": {"name": "Mainberg"}
    },
    { "type": "Feature",
      "geometry": {
        "type": "Point", "coordinates": [8.55037226845133, 50.0971120422781]},
        "properties": {"name": "Höchster Fähre"}
    },
    { "type": "Feature",
      "geometry": {
        "type": "Point", "coordinates": [8.55029918520784, 50.113878806059]},
        "properties": {"name": "Sossenheimer Weg"}
    },
    { "type": "Feature",
      "geometry": {
        "type": "Point", "coordinates": [8.5508877571117, 50.1062572529454]},
        "properties": {"name": "Robert-Bunsenstraße Bunkerbegrünung"}
    },
    { "type": "Feature",
      "geometry": {
        "type": "Point", "coordinates": [8.55171030994681, 50.1094879738724]},
        "properties": {"name": "Kurmainzer Vorplatz Friedhof"}
    },
    { "type": "Feature",
      "geometry": {
        "type": "Point", "coordinates": [8.55215973315552, 50.1032683705645]},
        "properties": {"name": "Ludwig-Scriba-Strasse / Ecke Zuckschwerdtstrasse"}
    },
    { "type": "Feature",
      "geometry": {
        "type": "Point", "coordinates": [8.55245400271859, 50.1046899843734]},
        "properties": {"name": "Palleskestrasse 14 Sozialstation Höchst"}
    },
    { "type": "Feature",
      "geometry": {
        "type": "Point", "coordinates": [8.55267279956031, 50.1007080902081]},
        "properties": {"name": "Bolongarogarten"}
    },
    { "type": "Feature",
      "geometry": {
        "type": "Point", "coordinates": [8.5534390986876, 50.0904440162424]},
        "properties": {"name": "Wanderweg Höchster Fähre-Schwanheimer Wald"}
    },
    { "type": "Feature",
      "geometry": {
        "type": "Point", "coordinates": [8.55597947107263, 50.1104213926302]},
        "properties": {"name": "Höchster Stadtpark"}
    },
    { "type": "Feature",
      "geometry": {
        "type": "Point", "coordinates": [8.55621791330945, 50.1027714986467]},
        "properties": {"name": "Vor der Gipsmühle"}
    },
    { "type": "Feature",
      "geometry": {
        "type": "Point", "coordinates": [8.55710128452538, 50.1191463234857]},
        "properties": {"name": "Dunantsiedlung"}
    },
    { "type": "Feature",
      "geometry": {
        "type": "Point", "coordinates": [8.5576629363189, 50.1219264818135]},
        "properties": {"name": "Parkanlage Sulzbachtal"}
    },
    { "type": "Feature",
      "geometry": {
        "type": "Point", "coordinates": [8.55789204071493, 50.1031195186679]},
        "properties": {"name": "Ludwig- Scriba-Str."}
    },
    { "type": "Feature",
      "geometry": {
        "type": "Point", "coordinates": [8.55941870136624, 50.0997359483829]},
        "properties": {"name": "Wörthspitze"}
    },
    { "type": "Feature",
      "geometry": {
        "type": "Point", "coordinates": [8.5596639880097, 50.1171961715006]},
        "properties": {"name": "Am Kapellenberg"}
    },
    { "type": "Feature",
      "geometry": {
        "type": "Point", "coordinates": [8.55991106353683, 50.1009155551173]},
        "properties": {"name": "Nied Grünzug an der Nidda"}
    },
    { "type": "Feature",
      "geometry": {
        "type": "Point", "coordinates": [8.56122114029326, 50.1120416000428]},
        "properties": {"name": "Auf der Weide (ehem. Kirschenallee)"}
    },
    { "type": "Feature",
      "geometry": {
        "type": "Point", "coordinates": [8.56261916885713, 50.089013523714]},
        "properties": {"name": "Am Schwanheimer Dünenteich"}
    },
    { "type": "Feature",
      "geometry": {
        "type": "Point", "coordinates": [8.56257642417796, 50.1029214893198]},
        "properties": {"name": "Holzlachstr."}
    },
    { "type": "Feature",
      "geometry": {
        "type": "Point", "coordinates": [8.56263505855306, 50.1195089283231]},
        "properties": {"name": "Schaumburger Strasse Am Sulzbach"}
    },
    { "type": "Feature",
      "geometry": {
        "type": "Point", "coordinates": [8.56352981984448, 50.1164465845875]},
        "properties": {"name": "Am Brünnchen Sossenheimer Vorflutkanal"}
    },
    { "type": "Feature",
      "geometry": {
        "type": "Point", "coordinates": [8.56357998408863, 50.124771834855]},
        "properties": {"name": "Renneroder Strasse Spielplatz"}
    },
    { "type": "Feature",
      "geometry": {
        "type": "Point", "coordinates": [8.56389027000486, 50.101389076621]},
        "properties": {"name": "Auf der Schanz"}
    },
    { "type": "Feature",
      "geometry": {
        "type": "Point", "coordinates": [8.56392723123127, 50.1080960328233]},
        "properties": {"name": "Höchst Am Strandbad"}
    },
    { "type": "Feature",
      "geometry": {
        "type": "Point", "coordinates": [8.56438690507984, 50.119065994921]},
        "properties": {"name": "Grünzug Am Sulzbach"}
    },
    { "type": "Feature",
      "geometry": {
        "type": "Point", "coordinates": [8.56492814069799, 50.1009973931419]},
        "properties": {"name": "Nied Kerbeplatz"}
    },
    { "type": "Feature",
      "geometry": {
        "type": "Point", "coordinates": [8.56567971612473, 50.1013508312626]},
        "properties": {"name": "Niddaschule Spielplatz"}
    },
    { "type": "Feature",
      "geometry": {
        "type": "Point", "coordinates": [8.56587791479854, 50.1026192153518]},
        "properties": {"name": "Denzerstrasse"}
    },
    { "type": "Feature",
      "geometry": {
        "type": "Point", "coordinates": [8.56719401565664, 50.124093102584]},
        "properties": {"name": "Robert-Dißmannstraße"}
    },
    { "type": "Feature",
      "geometry": {
        "type": "Point", "coordinates": [8.568512996092, 50.126705208629]},
        "properties": {"name": "Cäcilia-Lauth-Spielpark"}
    },
    { "type": "Feature",
      "geometry": {
        "type": "Point", "coordinates": [8.56967756994838, 50.0825847894667]},
        "properties": {"name": "Kauber Weg Ecke Oestricher Weg"}
    },
    { "type": "Feature",
      "geometry": {
        "type": "Point", "coordinates": [8.57006877814262, 50.0950828878559]},
        "properties": {"name": "Wörthspitze II"}
    },
    { "type": "Feature",
      "geometry": {
        "type": "Point", "coordinates": [8.57010265618021, 50.1084786722134]},
        "properties": {"name": "Nidda / Nied Altarm 22"}
    },
    { "type": "Feature",
      "geometry": {
        "type": "Point", "coordinates": [8.5702505386696, 50.1028872099953]},
        "properties": {"name": "S-Bahnstation Nied"}
    },
    { "type": "Feature",
      "geometry": {
        "type": "Point", "coordinates": [8.57026537196366, 50.1199779396346]},
        "properties": {"name": "Am Salusbach Spielplatz"}
    },
    { "type": "Feature",
      "geometry": {
        "type": "Point", "coordinates": [8.57138448713331, 50.082321390832]},
        "properties": {"name": "Rheinlandstrasse"}
    },
    { "type": "Feature",
      "geometry": {
        "type": "Point", "coordinates": [8.57175572861041, 50.1018139256437]},
        "properties": {"name": "Luthmerstrasse"}
    },
    { "type": "Feature",
      "geometry": {
        "type": "Point", "coordinates": [8.57188869940443, 50.0868903748305]},
        "properties": {"name": "Geisenheimer Straße Grünzug"}
    },
    { "type": "Feature",
      "geometry": {
        "type": "Point", "coordinates": [8.57182979462121, 50.1091863013601]},
        "properties": {"name": "Nidda / Sossenheim ( Der mittlere Sand )"}
    },
    { "type": "Feature",
      "geometry": {
        "type": "Point", "coordinates": [8.57224280398914, 50.0957741859677]},
        "properties": {"name": "Nieder Kirchweg"}
    },
    { "type": "Feature",
      "geometry": {
        "type": "Point", "coordinates": [8.57279011047559, 50.0908045164263]},
        "properties": {"name": "Schwanheimer Brücke"}
    },
    { "type": "Feature",
      "geometry": {
        "type": "Point", "coordinates": [8.57341363822471, 50.1260310557128]},
        "properties": {"name": "Carl-Sonnenschein -Siedlung"}
    },
    { "type": "Feature",
      "geometry": {
        "type": "Point", "coordinates": [8.57395347063103, 50.0967154747978]},
        "properties": {"name": "Nied Süd zwischen Alzeyerstr. und Landauer Str."}
    },
    { "type": "Feature",
      "geometry": {
        "type": "Point", "coordinates": [8.57406706538906, 50.1028203577745]},
        "properties": {"name": "Nied Im Sechsholder zwischen Hausnummer 54 und 56"}
    },
    { "type": "Feature",
      "geometry": {
        "type": "Point", "coordinates": [8.57412341275403, 50.109077860464]},
        "properties": {"name": "Nidda/Nied Altarm 21"}
    },
    { "type": "Feature",
      "geometry": {
        "type": "Point", "coordinates": [8.57452988514053, 50.0852818110709]},
        "properties": {"name": "An der Kreuzheck"}
    },
    { "type": "Feature",
      "geometry": {
        "type": "Point", "coordinates": [8.57456149079133, 50.1038111110964]},
        "properties": {"name": "Auf dem Gleichen"}
    },
    { "type": "Feature",
      "geometry": {
        "type": "Point", "coordinates": [8.57491892084558, 50.0886905963907]},
        "properties": {"name": "Geisenheimer Strasse 3"}
    },
    { "type": "Feature",
      "geometry": {
        "type": "Point", "coordinates": [8.5748705823954, 50.0988945080482]},
        "properties": {"name": "Nied Bildäckerstrasse"}
    },
    { "type": "Feature",
      "geometry": {
        "type": "Point", "coordinates": [8.57498753265584, 50.0872523842815]},
        "properties": {"name": "Deidesheimer Strasse"}
    },
    { "type": "Feature",
      "geometry": {
        "type": "Point", "coordinates": [8.57524345268737, 50.0930790947357]},
        "properties": {"name": "Schwanheimer Brücke Bolzplatz und Spielplatz"}
    },
    { "type": "Feature",
      "geometry": {
        "type": "Point", "coordinates": [8.57518407165268, 50.1013769992562]},
        "properties": {"name": "Im Sechsholder vor Hausnummer 39 bis 47"}
    },
    { "type": "Feature",
      "geometry": {
        "type": "Point", "coordinates": [8.57557685439699, 50.0917227651627]},
        "properties": {"name": "Mainufer Schwanheim"}
    },
    { "type": "Feature",
      "geometry": {
        "type": "Point", "coordinates": [8.57569608521158, 50.0845488656832]},
        "properties": {"name": "Martin-Heinrich-Anlage"}
    },
    { "type": "Feature",
      "geometry": {
        "type": "Point", "coordinates": [8.57625367229568, 50.0831124376543]},
        "properties": {"name": "Lönsweg"}
    },
    { "type": "Feature",
      "geometry": {
        "type": "Point", "coordinates": [8.57655304915875, 50.0840215604248]},
        "properties": {"name": "Tannenwaldplatz"}
    },
    { "type": "Feature",
      "geometry": {
        "type": "Point", "coordinates": [8.5766894033428, 50.0796437306042]},
        "properties": {"name": "Schwanheimer Bahnstraße"}
    },
    { "type": "Feature",
      "geometry": {
        "type": "Point", "coordinates": [8.57659389577959, 50.0968330169716]},
        "properties": {"name": "Alzeyer Strasse und Grünzug"}
    },
    { "type": "Feature",
      "geometry": {
        "type": "Point", "coordinates": [8.57658288422521, 50.0980826397032]},
        "properties": {"name": "Nied Süd zwischen Dürkheimer Strasse und Alzeyerstrasse"}
    },
    { "type": "Feature",
      "geometry": {
        "type": "Point", "coordinates": [8.57697828001047, 50.0960342738903]},
        "properties": {"name": "Marschallwiese"}
    },
    { "type": "Feature",
      "geometry": {
        "type": "Point", "coordinates": [8.57752888972613, 50.1144755236517]},
        "properties": {"name": "Speierling Allee Sossenheim"}
    },
    { "type": "Feature",
      "geometry": {
        "type": "Point", "coordinates": [8.57824894870184, 50.0993473556341]},
        "properties": {"name": "Nördlich Fridjof-Nansen-Schule"}
    },
    { "type": "Feature",
      "geometry": {
        "type": "Point", "coordinates": [8.57848830918325, 50.1102984937976]},
        "properties": {"name": "Nidda/Nied Altarm 20"}
    },
    { "type": "Feature",
      "geometry": {
        "type": "Point", "coordinates": [8.57895019021679, 50.1022627817932]},
        "properties": {"name": "Birminghamstrasse Am Altersheim"}
    },
    { "type": "Feature",
      "geometry": {
        "type": "Point", "coordinates": [8.57902343990552, 50.0970935808556]},
        "properties": {"name": "Nied Süd Bolzplatz"}
    },
    { "type": "Feature",
      "geometry": {
        "type": "Point", "coordinates": [8.57905630060448, 50.1124852110854]},
        "properties": {"name": "Nidda /Sossenheim Altarm 19"}
    },
    { "type": "Feature",
      "geometry": {
        "type": "Point", "coordinates": [8.58031429416477, 50.1045153123751]},
        "properties": {"name": "Werner-Bockelmann-Strasse 69"}
    },
    { "type": "Feature",
      "geometry": {
        "type": "Point", "coordinates": [8.58057005798459, 50.0880278768123]},
        "properties": {"name": "Eifelstraße Am alten Brückenkopf"}
    },
    { "type": "Feature",
      "geometry": {
        "type": "Point", "coordinates": [8.58072796788451, 50.1035638274905]},
        "properties": {"name": "Werner- Bockelmannstrasse südlich"}
    },
    { "type": "Feature",
      "geometry": {
        "type": "Point", "coordinates": [8.58108438339912, 50.1027649707699]},
        "properties": {"name": "Kurt-Blaumstrasse östlich"}
    },
    { "type": "Feature",
      "geometry": {
        "type": "Point", "coordinates": [8.58119190999037, 50.0952404129557]},
        "properties": {"name": "Fritz-Klatte-Strasse"}
    },
    { "type": "Feature",
      "geometry": {
        "type": "Point", "coordinates": [8.58227048438316, 50.1046032788696]},
        "properties": {"name": "Werner-Bockelmann-Strasse 117"}
    },
    { "type": "Feature",
      "geometry": {
        "type": "Point", "coordinates": [8.58229695480401, 50.104774191079]},
        "properties": {"name": "Werner-Bockelmannstrasse an der Eisenbahn"}
    },
    { "type": "Feature",
      "geometry": {
        "type": "Point", "coordinates": [8.58316101522998, 50.0825171025717]},
        "properties": {"name": "Rheinlandstrasse entlang der Straßenbahn"}
    },
    { "type": "Feature",
      "geometry": {
        "type": "Point", "coordinates": [8.58308929086297, 50.1117265885321]},
        "properties": {"name": "Nidda /Nied Altarm 18"}
    },
    { "type": "Feature",
      "geometry": {
        "type": "Point", "coordinates": [8.58313643656826, 50.1191797590482]},
        "properties": {"name": "Bohnengelände"}
    },
    { "type": "Feature",
      "geometry": {
        "type": "Point", "coordinates": [8.58369405610836, 50.1016325783741]},
        "properties": {"name": "Mainzer Landstrasse nördlich der B 40a"}
    },
    { "type": "Feature",
      "geometry": {
        "type": "Point", "coordinates": [8.58408282921401, 50.0987031092885]},
        "properties": {"name": "In der unteren Lachwies"}
    },
    { "type": "Feature",
      "geometry": {
        "type": "Point", "coordinates": [8.58476393836264, 50.1104559575155]},
        "properties": {"name": "Am Selzerbrunnen Waldspielpark"}
    },
    { "type": "Feature",
      "geometry": {
        "type": "Point", "coordinates": [8.58546255292765, 50.1040213530245]},
        "properties": {"name": "Werner-Bockelmannstr. Ost"}
    },
    { "type": "Feature",
      "geometry": {
        "type": "Point", "coordinates": [8.58549261737814, 50.1053969865616]},
        "properties": {"name": "Ferdinand-Scholl-Ring Spielplatz"}
    },
    { "type": "Feature",
      "geometry": {
        "type": "Point", "coordinates": [8.58589889354116, 50.113399856527]},
        "properties": {"name": "Nidda /Sossenheim Altarm 17"}
    },
    { "type": "Feature",
      "geometry": {
        "type": "Point", "coordinates": [8.5869703249867, 50.1253698205296]},
        "properties": {"name": "Mitten im Feld"}
    },
    { "type": "Feature",
      "geometry": {
        "type": "Point", "coordinates": [8.58856462959986, 50.0878227291073]},
        "properties": {"name": "Schwanheimer Ufer von Schwanheimer Brücke bis Autobahn"}
    },
    { "type": "Feature",
      "geometry": {
        "type": "Point", "coordinates": [8.5903470887116, 50.0869030207311]},
        "properties": {"name": "Grünstreifen am K.G. V. Schwanheim"}
    },
    { "type": "Feature",
      "geometry": {
        "type": "Point", "coordinates": [8.59064310535037, 50.1030058379253]},
        "properties": {"name": "Eichhörnchenpfad"}
    },
    { "type": "Feature",
      "geometry": {
        "type": "Point", "coordinates": [8.59064484387309, 50.1126435117126]},
        "properties": {"name": "Nidda/ Nied Altarm 16"}
    },
    { "type": "Feature",
      "geometry": {
        "type": "Point", "coordinates": [8.59090056891504, 50.1285752985703]},
        "properties": {"name": "Vogelschutzgehölz Rödelheim"}
    },
    { "type": "Feature",
      "geometry": {
        "type": "Point", "coordinates": [8.59133595490849, 50.0856388595623]},
        "properties": {"name": "Henriette-Fürth-Strasse Bolzplatz"}
    },
    { "type": "Feature",
      "geometry": {
        "type": "Point", "coordinates": [8.59237984008934, 50.0861190197565]},
        "properties": {"name": "Henriette- Fürth- Strasse"}
    },
    { "type": "Feature",
      "geometry": {
        "type": "Point", "coordinates": [8.59260159144975, 50.1011696993347]},
        "properties": {"name": "Jägerallee zwischen Elster- und Wildentenstr."}
    },
    { "type": "Feature",
      "geometry": {
        "type": "Point", "coordinates": [8.5933244166242, 50.0867786306065]},
        "properties": {"name": "Rheinlandstrasse An der Abzweigung Schwanheimer Ufer"}
    },
    { "type": "Feature",
      "geometry": {
        "type": "Point", "coordinates": [8.59340330959721, 50.0807553400954]},
        "properties": {"name": "Hartweg Eichwald"}
    },
    { "type": "Feature",
      "geometry": {
        "type": "Point", "coordinates": [8.59458022495277, 50.0820181116731]},
        "properties": {"name": "Harthweg Goldstein"}
    },
    { "type": "Feature",
      "geometry": {
        "type": "Point", "coordinates": [8.59474111286634, 50.1010513203791]},
        "properties": {"name": "Marderweg"}
    },
    { "type": "Feature",
      "geometry": {
        "type": "Point", "coordinates": [8.59504064714147, 50.1136029099956]},
        "properties": {"name": "Nidda /Griesheim (Ehem.Freibad Am Neufeld)"}
    },
    { "type": "Feature",
      "geometry": {
        "type": "Point", "coordinates": [8.59609030042649, 50.0985117454076]},
        "properties": {"name": "Grünzug zwischen Mainzer Landstrasse und Ahornstrasse"}
    },
    { "type": "Feature",
      "geometry": {
        "type": "Point", "coordinates": [8.59626700548248, 50.1040953800256]},
        "properties": {"name": "Foockenstr."}
    },
    { "type": "Feature",
      "geometry": {
        "type": "Point", "coordinates": [8.59642554603673, 50.1135088369461]},
        "properties": {"name": "Am Neufeld"}
    },
    { "type": "Feature",
      "geometry": {
        "type": "Point", "coordinates": [8.59709877829484, 50.103253174316]},
        "properties": {"name": "Linnegraben"}
    },
    { "type": "Feature",
      "geometry": {
        "type": "Point", "coordinates": [8.59782852603846, 50.0845377291466]},
        "properties": {"name": "Goldstein Siedlung Grünzug"}
    },
    { "type": "Feature",
      "geometry": {
        "type": "Point", "coordinates": [8.59790787114633, 50.1117968212321]},
        "properties": {"name": "Neufeld Grünstreifen entlang der Straße"}
    },
    { "type": "Feature",
      "geometry": {
        "type": "Point", "coordinates": [8.59834344671363, 50.1048487807396]},
        "properties": {"name": "Griesheimer Wäldchen"}
    },
    { "type": "Feature",
      "geometry": {
        "type": "Point", "coordinates": [8.59958808974892, 50.0812982764312]},
        "properties": {"name": "An der Herrenwiese"}
    },
    { "type": "Feature",
      "geometry": {
        "type": "Point", "coordinates": [8.60066788830155, 50.0791353081534]},
        "properties": {"name": "Grünanlage Am Bickenbacher Weg"}
    },
    { "type": "Feature",
      "geometry": {
        "type": "Point", "coordinates": [8.60023579311079, 50.1646589069334]},
        "properties": {"name": "Vogelschutzgehölz Flur 32 Niederursel"}
    },
    { "type": "Feature",
      "geometry": {
        "type": "Point", "coordinates": [8.60074844276678, 50.1249415130474]},
        "properties": {"name": "Zentmarkweg Grünstreifen"}
    },
    { "type": "Feature",
      "geometry": {
        "type": "Point", "coordinates": [8.60130174633025, 50.1037801311381]},
        "properties": {"name": "Foockenstr. an Hs Nr. 79 Spielpl. 242"}
    },
    { "type": "Feature",
      "geometry": {
        "type": "Point", "coordinates": [8.60164153323027, 50.0779699000748]},
        "properties": {"name": "Goldstein - Süd Grünzug"}
    },
    { "type": "Feature",
      "geometry": {
        "type": "Point", "coordinates": [8.60229167567807, 50.1614654255993]},
        "properties": {"name": "Vogelschutzgehölz Flur 33 Niederursel"}
    },
    { "type": "Feature",
      "geometry": {
        "type": "Point", "coordinates": [8.60372352724455, 50.0779230820628]},
        "properties": {"name": "Am Försterpfad"}
    },
    { "type": "Feature",
      "geometry": {
        "type": "Point", "coordinates": [8.60403956685906, 50.0853502301893]},
        "properties": {"name": "Sonnenweg / Tannenkopfweg"}
    },
    { "type": "Feature",
      "geometry": {
        "type": "Point", "coordinates": [8.60412303541696, 50.0786077156295]},
        "properties": {"name": "Am Försterpfad Spielplatz"}
    },
    { "type": "Feature",
      "geometry": {
        "type": "Point", "coordinates": [8.6042742982946, 50.0839934808031]},
        "properties": {"name": "Tannenkopfweg"}
    },
    { "type": "Feature",
      "geometry": {
        "type": "Point", "coordinates": [8.60388079584773, 50.1418989907133]},
        "properties": {"name": "Fritz-Schumacher-Weg"}
    },
    { "type": "Feature",
      "geometry": {
        "type": "Point", "coordinates": [8.60470861865544, 50.1195248954721]},
        "properties": {"name": "zwischen Biedenkopfer Weg und Breidensteiner Weg"}
    },
    { "type": "Feature",
      "geometry": {
        "type": "Point", "coordinates": [8.60512116318831, 50.1271680834754]},
        "properties": {"name": "Glashütterstr. ( Breitlacher Spange )"}
    },
    { "type": "Feature",
      "geometry": {
        "type": "Point", "coordinates": [8.6056234237846, 50.0796377274473]},
        "properties": {"name": "Strassburger Strasse westlich Autobahn"}
    },
    { "type": "Feature",
      "geometry": {
        "type": "Point", "coordinates": [8.60560072012212, 50.0909205941842]},
        "properties": {"name": "Griesheim, Jungmannstr."}
    },
    { "type": "Feature",
      "geometry": {
        "type": "Point", "coordinates": [8.60557458175656, 50.1162373739922]},
        "properties": {"name": "Dammgraben zwischen Rödelheim und Wiesbadener Strasse"}
    },
    { "type": "Feature",
      "geometry": {
        "type": "Point", "coordinates": [8.60597205947018, 50.1410610146718]},
        "properties": {"name": "Theodor- Fischer-Weg"}
    },
    { "type": "Feature",
      "geometry": {
        "type": "Point", "coordinates": [8.60597371741106, 50.1425624014288]},
        "properties": {"name": "Camillo-Sitte-Weg (Nord)"}
    },
    { "type": "Feature",
      "geometry": {
        "type": "Point", "coordinates": [8.60652217038833, 50.0807825575538]},
        "properties": {"name": "Am Wiesenhof Goldstein"}
    },
    { "type": "Feature",
      "geometry": {
        "type": "Point", "coordinates": [8.60638960151902, 50.0969737966641]},
        "properties": {"name": "Waldschulstrasse"}
    },
    { "type": "Feature",
      "geometry": {
        "type": "Point", "coordinates": [8.60664218626785, 50.0985569583744]},
        "properties": {"name": "Waldschulstrasse bis Kiefernstrasse"}
    },
    { "type": "Feature",
      "geometry": {
        "type": "Point", "coordinates": [8.60679416504659, 50.0902323819342]},
        "properties": {"name": "Griesheimer Ufer (westl. Autobahn)"}
    },
    { "type": "Feature",
      "geometry": {
        "type": "Point", "coordinates": [8.606680668341, 50.1245841598456]},
        "properties": {"name": "Rödelheim S-Bahnhof"}
    },
    { "type": "Feature",
      "geometry": {
        "type": "Point", "coordinates": [8.60654554781793, 50.1444792743924]},
        "properties": {"name": "Praunheim zwischen Heerstrasse und verlaengerten Messelweg"}
    },
    { "type": "Feature",
      "geometry": {
        "type": "Point", "coordinates": [8.60641490318702, 50.1689234116181]},
        "properties": {"name": "Vogelschutzgehölz Flur 31 Niederursel"}
    },
    { "type": "Feature",
      "geometry": {
        "type": "Point", "coordinates": [8.60719161405503, 50.0911867079012]},
        "properties": {"name": "Alte Falterstr."}
    },
    { "type": "Feature",
      "geometry": {
        "type": "Point", "coordinates": [8.6073078676243, 50.0820888253251]},
        "properties": {"name": "Goldsteinpark"}
    },
    { "type": "Feature",
      "geometry": {
        "type": "Point", "coordinates": [8.60754783312536, 50.1416686998702]},
        "properties": {"name": "Camillo-Sitte-Weg (Süd)"}
    },
    { "type": "Feature",
      "geometry": {
        "type": "Point", "coordinates": [8.60802269997868, 50.1195001664889]},
        "properties": {"name": "Breitlacher Strasse"}
    },
    { "type": "Feature",
      "geometry": {
        "type": "Point", "coordinates": [8.60843078685136, 50.0797371328694]},
        "properties": {"name": "Goldstein-Süd ÷stl. Kita"}
    },
    { "type": "Feature",
      "geometry": {
        "type": "Point", "coordinates": [8.60836996927233, 50.0974929437255]},
        "properties": {"name": "Waldschulstrasse vor August-Zinn-Schule"}
    },
    { "type": "Feature",
      "geometry": {
        "type": "Point", "coordinates": [8.60856815976369, 50.0783081220457]},
        "properties": {"name": "Am Wildpfad Grünzug"}
    },
    { "type": "Feature",
      "geometry": {
        "type": "Point", "coordinates": [8.6087735934824, 50.0942667590706]},
        "properties": {"name": "Waldschulstrasse/ Omegabrücke"}
    },
    { "type": "Feature",
      "geometry": {
        "type": "Point", "coordinates": [8.60981444994431, 50.0934431462421]},
        "properties": {"name": "Am Gemeindegarten"}
    },
    { "type": "Feature",
      "geometry": {
        "type": "Point", "coordinates": [8.60998705108284, 50.0842285792135]},
        "properties": {"name": "Tränkweg Goldstein"}
    },
    { "type": "Feature",
      "geometry": {
        "type": "Point", "coordinates": [8.61007356013382, 50.1200644711113]},
        "properties": {"name": "Rödelheim ehemaliges Freibad"}
    },
    { "type": "Feature",
      "geometry": {
        "type": "Point", "coordinates": [8.61054016356241, 50.0866668320415]},
        "properties": {"name": "Grünstreifen am K.G. V. Westend und Goldstein"}
    },
    { "type": "Feature",
      "geometry": {
        "type": "Point", "coordinates": [8.61018884537047, 50.1454715005491]},
        "properties": {"name": "Olbrichstrasse"}
    },
    { "type": "Feature",
      "geometry": {
        "type": "Point", "coordinates": [8.61071733215442, 50.0958466074992]},
        "properties": {"name": "Espenstr, Schwarzerlenweg, Bahndamm Grünzug"}
    },
    { "type": "Feature",
      "geometry": {
        "type": "Point", "coordinates": [8.61099578147878, 50.0787118584213]},
        "properties": {"name": "Zur Waldau"}
    },
    { "type": "Feature",
      "geometry": {
        "type": "Point", "coordinates": [8.61055250427154, 50.1403122860561]},
        "properties": {"name": "Margarete-Schütte-Lithotzky Anlage"}
    },
    { "type": "Feature",
      "geometry": {
        "type": "Point", "coordinates": [8.61156429149727, 50.1362880148302]},
        "properties": {"name": "Siedlung Westhausen"}
    },
    { "type": "Feature",
      "geometry": {
        "type": "Point", "coordinates": [8.61165275200731, 50.1460967345294]},
        "properties": {"name": "Eberstadtstrasse"}
    },
    { "type": "Feature",
      "geometry": {
        "type": "Point", "coordinates": [8.61167940530432, 50.1445325114872]},
        "properties": {"name": "Ludwig-Gehm-Weg"}
    },
    { "type": "Feature",
      "geometry": {
        "type": "Point", "coordinates": [8.6120451846798, 50.121788228211]},
        "properties": {"name": "Solmspark"}
    },
    { "type": "Feature",
      "geometry": {
        "type": "Point", "coordinates": [8.6123172349373, 50.1261943995438]},
        "properties": {"name": "Thudichumstrasse"}
    },
    { "type": "Feature",
      "geometry": {
        "type": "Point", "coordinates": [8.61244078570053, 50.1611131452664]},
        "properties": {"name": "Vogelschutzgehölz Paul-Kornfeld-Weg"}
    },
    { "type": "Feature",
      "geometry": {
        "type": "Point", "coordinates": [8.61370698924447, 50.0838184658624]},
        "properties": {"name": "zwischen Am Hofgut und Morgenzeile"}
    },
    { "type": "Feature",
      "geometry": {
        "type": "Point", "coordinates": [8.61387284621592, 50.0840437773723]},
        "properties": {"name": "Am Hofgut Goldstein"}
    },
    { "type": "Feature",
      "geometry": {
        "type": "Point", "coordinates": [8.61361389228077, 50.1232049401344]},
        "properties": {"name": "Brentanopark Auf der Insel"}
    },
    { "type": "Feature",
      "geometry": {
        "type": "Point", "coordinates": [8.6136066585689, 50.1397381158192]},
        "properties": {"name": "Ludwig-Landmamm-Strasse/Lehmkuhle"}
    },
    { "type": "Feature",
      "geometry": {
        "type": "Point", "coordinates": [8.61354779793103, 50.1626721504206]},
        "properties": {"name": "Gerhard- Hauptmann Ring Tiefgarage 24 a"}
    },
    { "type": "Feature",
      "geometry": {
        "type": "Point", "coordinates": [8.61427434543224, 50.0792802011682]},
        "properties": {"name": "Grünstreifen am K.G.V. Schwarzbach e. V."}
    },
    { "type": "Feature",
      "geometry": {
        "type": "Point", "coordinates": [8.61402642915014, 50.1118964614643]},
        "properties": {"name": "Rebstockpark westlicher Teil"}
    },
    { "type": "Feature",
      "geometry": {
        "type": "Point", "coordinates": [8.61428433962321, 50.0919656765531]},
        "properties": {"name": "zwischen Schöffenstraße und Am Wingertsgrund"}
    },
    { "type": "Feature",
      "geometry": {
        "type": "Point", "coordinates": [8.61403106301557, 50.1426254149275]},
        "properties": {"name": "Heinrich-Lübke-Strasse Grünanlage"}
    },
    { "type": "Feature",
      "geometry": {
        "type": "Point", "coordinates": [8.61445378057476, 50.1213557222754]},
        "properties": {"name": "Rebstöcker Weg"}
    },
    { "type": "Feature",
      "geometry": {
        "type": "Point", "coordinates": [8.61409422967187, 50.1660722888358]},
        "properties": {"name": "Gerhard- Hauptmann- Ring, Tiefgarage 21 d"}
    },
    { "type": "Feature",
      "geometry": {
        "type": "Point", "coordinates": [8.61422847198344, 50.166782965738]},
        "properties": {"name": "Gerhard- Hauptmann- Ring, Tiefgarage 21 b"}
    },
    { "type": "Feature",
      "geometry": {
        "type": "Point", "coordinates": [8.61524660566746, 50.090467475025]},
        "properties": {"name": "Bürgermeister-Schubert-Park Spielplatz"}
    },
    { "type": "Feature",
      "geometry": {
        "type": "Point", "coordinates": [8.61484879336378, 50.1644835153546]},
        "properties": {"name": "Gerhard-Hauptmann-Ring vor Hausnummer 198-210"}
    },
    { "type": "Feature",
      "geometry": {
        "type": "Point", "coordinates": [8.61487477818883, 50.1629912165697]},
        "properties": {"name": "Gerhard- Hauptmann- Ring,Tiefgarage 24b"}
    },
    { "type": "Feature",
      "geometry": {
        "type": "Point", "coordinates": [8.61518847063251, 50.1413436414728]},
        "properties": {"name": "Praunheimer Hohl Grünanlage"}
    },
    { "type": "Feature",
      "geometry": {
        "type": "Point", "coordinates": [8.61546720277927, 50.1083050995729]},
        "properties": {"name": "Hof der KFZ-Zulassungsstelle"}
    },
    { "type": "Feature",
      "geometry": {
        "type": "Point", "coordinates": [8.6152035926344, 50.1603851267601]},
        "properties": {"name": "Paul-Kornfeld-Weg"}
    },
    { "type": "Feature",
      "geometry": {
        "type": "Point", "coordinates": [8.61546899081519, 50.1464870227003]},
        "properties": {"name": "Damaschkeanger"}
    },
    { "type": "Feature",
      "geometry": {
        "type": "Point", "coordinates": [8.61567896024607, 50.1237691924369]},
        "properties": {"name": "Brentanopark"}
    },
    { "type": "Feature",
      "geometry": {
        "type": "Point", "coordinates": [8.61572352379302, 50.1251898122003]},
        "properties": {"name": "Niddainsel Am Brentano"}
    },
    { "type": "Feature",
      "geometry": {
        "type": "Point", "coordinates": [8.61571417047057, 50.1612858443218]},
        "properties": {"name": "Gerhard- Hauptmann Ring,Tiefgarage 26"}
    },
    { "type": "Feature",
      "geometry": {
        "type": "Point", "coordinates": [8.6159481092105, 50.1460570734685]},
        "properties": {"name": "Adlerwiese"}
    },
    { "type": "Feature",
      "geometry": {
        "type": "Point", "coordinates": [8.61645956928642, 50.1013228704676]},
        "properties": {"name": "Bischofsheimer Platz"}
    },
    { "type": "Feature",
      "geometry": {
        "type": "Point", "coordinates": [8.61622408051197, 50.1640205726356]},
        "properties": {"name": "Gerhard- Hauptmann- Ring Tiefgarage 22 a"}
    },
    { "type": "Feature",
      "geometry": {
        "type": "Point", "coordinates": [8.61650783038152, 50.1372933758829]},
        "properties": {"name": "Nidda/ Altarm 7"}
    },
    { "type": "Feature",
      "geometry": {
        "type": "Point", "coordinates": [8.61704467927397, 50.0822741835029]},
        "properties": {"name": "Boseweg"}
    },
    { "type": "Feature",
      "geometry": {
        "type": "Point", "coordinates": [8.61673016130874, 50.1409801361018]},
        "properties": {"name": "Nidda/ Altarm 8"}
    },
    { "type": "Feature",
      "geometry": {
        "type": "Point", "coordinates": [8.61682653758927, 50.1359189099176]},
        "properties": {"name": "Ludwig- Landmann-Strasse zwischen Altarm 7 und Strasse"}
    },
    { "type": "Feature",
      "geometry": {
        "type": "Point", "coordinates": [8.61715179526471, 50.1144330943509]},
        "properties": {"name": "Zum Rebstockbad"}
    },
    { "type": "Feature",
      "geometry": {
        "type": "Point", "coordinates": [8.61724754738544, 50.1076816559657]},
        "properties": {"name": "Schmidtstrasse Kreisel"}
    },
    { "type": "Feature",
      "geometry": {
        "type": "Point", "coordinates": [8.61751026367959, 50.0781940769429]},
        "properties": {"name": "Schwanheim Flur 37 Flurstueck 8448/8 Herrnwiesen"}
    },
    { "type": "Feature",
      "geometry": {
        "type": "Point", "coordinates": [8.6169965033366, 50.1444153102524]},
        "properties": {"name": "Nidda/Altarm 9"}
    },
    { "type": "Feature",
      "geometry": {
        "type": "Point", "coordinates": [8.61729727436306, 50.1312634777894]},
        "properties": {"name": "Alexanderstraße Spielplatz"}
    },
    { "type": "Feature",
      "geometry": {
        "type": "Point", "coordinates": [8.61765564910241, 50.1178780558041]},
        "properties": {"name": "Biegwald"}
    },
    { "type": "Feature",
      "geometry": {
        "type": "Point", "coordinates": [8.61734857573893, 50.1616598404664]},
        "properties": {"name": "Gerhard- Hauptmann- Ring Tiefgarage 25 a"}
    },
    { "type": "Feature",
      "geometry": {
        "type": "Point", "coordinates": [8.61771665663224, 50.1277766135551]},
        "properties": {"name": "Kullmannwiese"}
    },
    { "type": "Feature",
      "geometry": {
        "type": "Point", "coordinates": [8.61741634015159, 50.1689511707992]},
        "properties": {"name": "Vogelschutzgehölz 29 Niederursel"}
    },
    { "type": "Feature",
      "geometry": {
        "type": "Point", "coordinates": [8.61751932370293, 50.1648159878467]},
        "properties": {"name": "Grünverbindung Thomas- Mann Strasse - Weisskirchener Weg"}
    },
    { "type": "Feature",
      "geometry": {
        "type": "Point", "coordinates": [8.61787028755021, 50.1242888717323]},
        "properties": {"name": "Priessnitzstrasse"}
    },
    { "type": "Feature",
      "geometry": {
        "type": "Point", "coordinates": [8.61759325587906, 50.1660748686785]},
        "properties": {"name": "Gerhard- Hauptmann- Ring, Tiefgarage 21"}
    },
    { "type": "Feature",
      "geometry": {
        "type": "Point", "coordinates": [8.61831282220666, 50.1389805090327]},
        "properties": {"name": "Am Niddatal Grünanlage"}
    },
    { "type": "Feature",
      "geometry": {
        "type": "Point", "coordinates": [8.61818945851471, 50.1650249683447]},
        "properties": {"name": "Weißkirchener Weg Verkehrsgrün"}
    },
    { "type": "Feature",
      "geometry": {
        "type": "Point", "coordinates": [8.61864577647356, 50.1622035223118]},
        "properties": {"name": "Gerhart-Hauptmann-Ring /Thomas-Mann-Strasse Grünverbindung"}
    },
    { "type": "Feature",
      "geometry": {
        "type": "Point", "coordinates": [8.61928106024146, 50.1015659043696]},
        "properties": {"name": "Marxheimer Platz"}
    },
    { "type": "Feature",
      "geometry": {
        "type": "Point", "coordinates": [8.61905038197915, 50.1482699111422]},
        "properties": {"name": "Sandplackenstr."}
    },
    { "type": "Feature",
      "geometry": {
        "type": "Point", "coordinates": [8.61903344114282, 50.1556868432028]},
        "properties": {"name": "Vogelschutzgehölz Flur 12 Niederursel"}
    },
    { "type": "Feature",
      "geometry": {
        "type": "Point", "coordinates": [8.61906919501816, 50.1599933040752]},
        "properties": {"name": "Gerhard- Hauptmann Ring Tiefgarage 28 a"}
    },
    { "type": "Feature",
      "geometry": {
        "type": "Point", "coordinates": [8.61905467953279, 50.1794302000008]},
        "properties": {"name": "Vogelschutzgehölz Nummer 21 Niederursel"}
    },
    { "type": "Feature",
      "geometry": {
        "type": "Point", "coordinates": [8.61962441710306, 50.1217503656326]},
        "properties": {"name": "Ludwig-Landmann-Strasse südlich Sportplatz"}
    },
    { "type": "Feature",
      "geometry": {
        "type": "Point", "coordinates": [8.61958433310217, 50.1356312943986]},
        "properties": {"name": "Nidda/ Altarm 6"}
    },
    { "type": "Feature",
      "geometry": {
        "type": "Point", "coordinates": [8.61950074639847, 50.1638065939329]},
        "properties": {"name": "Thomas-Mann Straße Einkaufszentrum"}
    },
    { "type": "Feature",
      "geometry": {
        "type": "Point", "coordinates": [8.61954618776002, 50.1686614863539]},
        "properties": {"name": "Obermühlgasse/Dorfwiesenweg"}
    },
    { "type": "Feature",
      "geometry": {
        "type": "Point", "coordinates": [8.61961735784756, 50.1649847010095]},
        "properties": {"name": "Weißkirchner Weg Tiefgarage 19"}
    },
    { "type": "Feature",
      "geometry": {
        "type": "Point", "coordinates": [8.61975927194012, 50.1612092518732]},
        "properties": {"name": "Gerhard- Hauptmann Ring Tiefgarage 29 a"}
    },
    { "type": "Feature",
      "geometry": {
        "type": "Point", "coordinates": [8.62038739470615, 50.1419720889515]},
        "properties": {"name": "Am Treutengraben"}
    },
    { "type": "Feature",
      "geometry": {
        "type": "Point", "coordinates": [8.62028693452374, 50.1652655897]},
        "properties": {"name": "Am Birnbäumchen"}
    },
    { "type": "Feature",
      "geometry": {
        "type": "Point", "coordinates": [8.62040759788773, 50.1588649102124]},
        "properties": {"name": "Gerhard- Hauptmann Ring Spielplatz"}
    },
    { "type": "Feature",
      "geometry": {
        "type": "Point", "coordinates": [8.62075916194693, 50.1568792068539]},
        "properties": {"name": "Rudolf- Hilferding- Straße Tiefgarage 37"}
    },
    { "type": "Feature",
      "geometry": {
        "type": "Point", "coordinates": [8.62108547680499, 50.1332897289735]},
        "properties": {"name": "Hausener Obergasse"}
    },
    { "type": "Feature",
      "geometry": {
        "type": "Point", "coordinates": [8.62158658945156, 50.0945609508102]},
        "properties": {"name": "Grünstreifen Kleyerstr."}
    },
    { "type": "Feature",
      "geometry": {
        "type": "Point", "coordinates": [8.62125932694204, 50.1449327441565]},
        "properties": {"name": "Nidda Praunheim"}
    },
    { "type": "Feature",
      "geometry": {
        "type": "Point", "coordinates": [8.62164019051638, 50.1055024030033]},
        "properties": {"name": "Anspacher Straße"}
    },
    { "type": "Feature",
      "geometry": {
        "type": "Point", "coordinates": [8.62188333722096, 50.1296602401045]},
        "properties": {"name": "Ludwig-Landmann-Strasse"}
    },
    { "type": "Feature",
      "geometry": {
        "type": "Point", "coordinates": [8.62208711443864, 50.1375274296649]},
        "properties": {"name": "An der Luhe Kriegerdenkmal"}
    },
    { "type": "Feature",
      "geometry": {
        "type": "Point", "coordinates": [8.62209845647979, 50.1680494882257]},
        "properties": {"name": "Seibertsgasse am Urselbach"}
    },
    { "type": "Feature",
      "geometry": {
        "type": "Point", "coordinates": [8.62248587320319, 50.1401808671024]},
        "properties": {"name": "An der Litzelwiese"}
    },
    { "type": "Feature",
      "geometry": {
        "type": "Point", "coordinates": [8.62283193479266, 50.1050477713054]},
        "properties": {"name": "Kronthaler Str."}
    },
    { "type": "Feature",
      "geometry": {
        "type": "Point", "coordinates": [8.62263202462458, 50.1322698677352]},
        "properties": {"name": "Am Spritzenhaus"}
    },
    { "type": "Feature",
      "geometry": {
        "type": "Point", "coordinates": [8.62254389951264, 50.1452515858159]},
        "properties": {"name": "Nidda/ Altarm 10"}
    },
    { "type": "Feature",
      "geometry": {
        "type": "Point", "coordinates": [8.62269425889809, 50.1314699315773]},
        "properties": {"name": "Hausen Am Strandbad"}
    },
    { "type": "Feature",
      "geometry": {
        "type": "Point", "coordinates": [8.62262205678291, 50.1673229788873]},
        "properties": {"name": "Karl- Kautzky Weg"}
    },
    { "type": "Feature",
      "geometry": {
        "type": "Point", "coordinates": [8.62284628864578, 50.1655076735029]},
        "properties": {"name": "Niederurseler Landstrasse Verkehrsgrün"}
    },
    { "type": "Feature",
      "geometry": {
        "type": "Point", "coordinates": [8.62353905095688, 50.0897304727319]},
        "properties": {"name": "Griesheimer Ufer (Mainvorland oestlich Autobahn"}
    },
    { "type": "Feature",
      "geometry": {
        "type": "Point", "coordinates": [8.62323521290934, 50.1498568606908]},
        "properties": {"name": "Graebestrasse und an der Kirche"}
    },
    { "type": "Feature",
      "geometry": {
        "type": "Point", "coordinates": [8.62327559692633, 50.1571840738214]},
        "properties": {"name": "Heilmannstraße Tiefgarage 34"}
    },
    { "type": "Feature",
      "geometry": {
        "type": "Point", "coordinates": [8.62384667629289, 50.1111285424373]},
        "properties": {"name": "Rebstockpark östlicher Teil"}
    },
    { "type": "Feature",
      "geometry": {
        "type": "Point", "coordinates": [8.62347117898569, 50.1607898087325]},
        "properties": {"name": "Praunheimer Weg Tiefgarage 32"}
    },
    { "type": "Feature",
      "geometry": {
        "type": "Point", "coordinates": [8.62370256477064, 50.1651868005579]},
        "properties": {"name": "Eduard- Bernstein Weg Tiefgarage 36 a"}
    },
    { "type": "Feature",
      "geometry": {
        "type": "Point", "coordinates": [8.62372326431308, 50.1643327921971]},
        "properties": {"name": "Oswaltstraße Tiefgarage 36 b"}
    },
    { "type": "Feature",
      "geometry": {
        "type": "Point", "coordinates": [8.62440038009023, 50.0832242209477]},
        "properties": {"name": "Niederrad Bürostadt zw. Lyoner Strasse und Goldsteinstrasse"}
    },
    { "type": "Feature",
      "geometry": {
        "type": "Point", "coordinates": [8.62386770319488, 50.1619778092182]},
        "properties": {"name": "Martin- Luther- King- Park"}
    },
    { "type": "Feature",
      "geometry": {
        "type": "Point", "coordinates": [8.62465482818943, 50.1168400266423]},
        "properties": {"name": "Vogelschutzgehölz Ludwig-Landmann-Strasse"}
    },
    { "type": "Feature",
      "geometry": {
        "type": "Point", "coordinates": [8.62459379533554, 50.1300106644022]},
        "properties": {"name": "Fischstein Spielplatz"}
    },
    { "type": "Feature",
      "geometry": {
        "type": "Point", "coordinates": [8.62488360382671, 50.1215606929935]},
        "properties": {"name": "Rödelheimer Landstraße hinter Hausnummer 90 bis 124"}
    },
    { "type": "Feature",
      "geometry": {
        "type": "Point", "coordinates": [8.62511372364249, 50.0974583010377]},
        "properties": {"name": "Ackermannstraße (Friedrich-Ebert-Siedlung)"}
    },
    { "type": "Feature",
      "geometry": {
        "type": "Point", "coordinates": [8.62493099706232, 50.1333921134346]},
        "properties": {"name": "Hausen Alter Friedhof und Ehrenmal"}
    },
    { "type": "Feature",
      "geometry": {
        "type": "Point", "coordinates": [8.62524945252366, 50.1338066958284]},
        "properties": {"name": "Hausen nördlich Alter Friedhof"}
    },
    { "type": "Feature",
      "geometry": {
        "type": "Point", "coordinates": [8.62546539450494, 50.1258509582251]},
        "properties": {"name": "Industrie Hausen Spielplatz"}
    },
    { "type": "Feature",
      "geometry": {
        "type": "Point", "coordinates": [8.62554776988079, 50.1314252239973]},
        "properties": {"name": "Hausener Obergasse / Bachmannstrasse"}
    },
    { "type": "Feature",
      "geometry": {
        "type": "Point", "coordinates": [8.62584875899197, 50.130491200751]},
        "properties": {"name": "Peter-Zenger-Strasse"}
    },
    { "type": "Feature",
      "geometry": {
        "type": "Point", "coordinates": [8.62578485178179, 50.1512406163428]},
        "properties": {"name": "Fritz-Lennig-Anlage"}
    },
    { "type": "Feature",
      "geometry": {
        "type": "Point", "coordinates": [8.62651246734074, 50.1404546026705]},
        "properties": {"name": "Niddapark Zugangsweg"}
    },
    { "type": "Feature",
      "geometry": {
        "type": "Point", "coordinates": [8.62673620617544, 50.1494546095948]},
        "properties": {"name": "Nidda Altarm 11"}
    },
    { "type": "Feature",
      "geometry": {
        "type": "Point", "coordinates": [8.6275805081446, 50.0965582108209]},
        "properties": {"name": "Ackermannstraße"}
    },
    { "type": "Feature",
      "geometry": {
        "type": "Point", "coordinates": [8.62734904606319, 50.1588154619444]},
        "properties": {"name": "Rhein-Main Schnellweg"}
    },
    { "type": "Feature",
      "geometry": {
        "type": "Point", "coordinates": [8.62788243228484, 50.1531982465889]},
        "properties": {"name": "Im Weimel, Tiefgarage 7 b"}
    },
    { "type": "Feature",
      "geometry": {
        "type": "Point", "coordinates": [8.62843333874323, 50.1543327857192]},
        "properties": {"name": "Bernadottestrasse Tiefgarage 7 a"}
    },
    { "type": "Feature",
      "geometry": {
        "type": "Point", "coordinates": [8.6286061094311, 50.1609322019094]},
        "properties": {"name": "Hammarskjöldring Tiefgarage 9 c"}
    },
    { "type": "Feature",
      "geometry": {
        "type": "Point", "coordinates": [8.62885277618746, 50.1579931704013]},
        "properties": {"name": "Bernadottestrasse Tiefgarage 35"}
    },
    { "type": "Feature",
      "geometry": {
        "type": "Point", "coordinates": [8.62941462330445, 50.1051948288669]},
        "properties": {"name": "Hellerhof-Siedlung Schneidhainer Strasse"}
    },
    { "type": "Feature",
      "geometry": {
        "type": "Point", "coordinates": [8.62938511143299, 50.1108316866492]},
        "properties": {"name": "Buzzinstrasse / Zeppelin Gedenkstein"}
    },
    { "type": "Feature",
      "geometry": {
        "type": "Point", "coordinates": [8.62922706201086, 50.1530227403531]},
        "properties": {"name": "In der Römerstadt, Tiefgarage 1"}
    },
    { "type": "Feature",
      "geometry": {
        "type": "Point", "coordinates": [8.6293909737137, 50.1607818737561]},
        "properties": {"name": "Hammarskjöldring, Tiefgarage 9 b"}
    },
    { "type": "Feature",
      "geometry": {
        "type": "Point", "coordinates": [8.62940052044861, 50.1613572816244]},
        "properties": {"name": "Hammarskjöldring,TG 9 a"}
    },
    { "type": "Feature",
      "geometry": {
        "type": "Point", "coordinates": [8.62949946332043, 50.157608652743]},
        "properties": {"name": "Bernadottestrasse Tiefgarage 8 b"}
    },
    { "type": "Feature",
      "geometry": {
        "type": "Point", "coordinates": [8.62996235152658, 50.1012318260838]},
        "properties": {"name": "Gustavsburgplatz"}
    },
    { "type": "Feature",
      "geometry": {
        "type": "Point", "coordinates": [8.62988093832474, 50.1299377293559]},
        "properties": {"name": "Grünstreifen am Parkplatz K.G.V.Bockenheim"}
    },
    { "type": "Feature",
      "geometry": {
        "type": "Point", "coordinates": [8.62950312991686, 50.1879148107189]},
        "properties": {"name": "Fasanenweg Spielplatz"}
    },
    { "type": "Feature",
      "geometry": {
        "type": "Point", "coordinates": [8.63002114173261, 50.1661690530557]},
        "properties": {"name": "Herzbergstrasse"}
    },
    { "type": "Feature",
      "geometry": {
        "type": "Point", "coordinates": [8.63019226736129, 50.1585008976007]},
        "properties": {"name": "Bernadottestrasse Tiefgarage 8 d"}
    },
    { "type": "Feature",
      "geometry": {
        "type": "Point", "coordinates": [8.63071264808686, 50.1545288496954]},
        "properties": {"name": "Im Weimel Grünverbindung"}
    },
    { "type": "Feature",
      "geometry": {
        "type": "Point", "coordinates": [8.63074473467184, 50.1576305981325]},
        "properties": {"name": "Walter-Schwagenscheidt-Platz, Tiefgarage 8 c"}
    },
    { "type": "Feature",
      "geometry": {
        "type": "Point", "coordinates": [8.63134190030243, 50.1127079070639]},
        "properties": {"name": "Friedrich-Naumann-Platz"}
    },
    { "type": "Feature",
      "geometry": {
        "type": "Point", "coordinates": [8.6315142855897, 50.1175722294996]},
        "properties": {"name": "Voltastrasse Pocketpark West"}
    },
    { "type": "Feature",
      "geometry": {
        "type": "Point", "coordinates": [8.63175741752384, 50.1332701110528]},
        "properties": {"name": "Hausen Langweidenstr. Kreisel"}
    },
    { "type": "Feature",
      "geometry": {
        "type": "Point", "coordinates": [8.63182803194967, 50.1623449396108]},
        "properties": {"name": "Schwarzer Platz- Hammerskjöldring Grünverbindung"}
    },
    { "type": "Feature",
      "geometry": {
        "type": "Point", "coordinates": [8.63206786301467, 50.1639189963908]},
        "properties": {"name": "Niederurseler Landstrasse"}
    },
    { "type": "Feature",
      "geometry": {
        "type": "Point", "coordinates": [8.63256210574747, 50.1487359796771]},
        "properties": {"name": "Nidda Altarm 12 Nachtigallenwäldchen"}
    },
    { "type": "Feature",
      "geometry": {
        "type": "Point", "coordinates": [8.63242064120039, 50.1671925694317]},
        "properties": {"name": "In den Stegwiesen"}
    },
    { "type": "Feature",
      "geometry": {
        "type": "Point", "coordinates": [8.63258527730088, 50.1511904017706]},
        "properties": {"name": "Römerstadt Bastionen Im Burgfeld"}
    },
    { "type": "Feature",
      "geometry": {
        "type": "Point", "coordinates": [8.63237909576465, 50.1908547597289]},
        "properties": {"name": "Zum Bergwerk"}
    },
    { "type": "Feature",
      "geometry": {
        "type": "Point", "coordinates": [8.63272111461962, 50.149896229889]},
        "properties": {"name": "Große Niederwiese"}
    },
    { "type": "Feature",
      "geometry": {
        "type": "Point", "coordinates": [8.63312348610112, 50.1174065075021]},
        "properties": {"name": "Voltastrasse Pocketpark Mitte"}
    },
    { "type": "Feature",
      "geometry": {
        "type": "Point", "coordinates": [8.63293800096818, 50.1599480494975]},
        "properties": {"name": "Schwarzer Platz"}
    },
    { "type": "Feature",
      "geometry": {
        "type": "Point", "coordinates": [8.6336576716555, 50.076699797586]},
        "properties": {"name": "Hahnstrasse Parkplatz"}
    },
    { "type": "Feature",
      "geometry": {
        "type": "Point", "coordinates": [8.63356588106074, 50.1418795547771]},
        "properties": {"name": "Volkspark Niddatal"}
    },
    { "type": "Feature",
      "geometry": {
        "type": "Point", "coordinates": [8.63397753587597, 50.1245924783812]},
        "properties": {"name": "Bolzplatz Schönhof"}
    },
    { "type": "Feature",
      "geometry": {
        "type": "Point", "coordinates": [8.63443819861934, 50.0677478108665]},
        "properties": {"name": "An der S-Bahn Stadion"}
    },
    { "type": "Feature",
      "geometry": {
        "type": "Point", "coordinates": [8.63434130329452, 50.0878410492907]},
        "properties": {"name": "Schwanheimer Strasse"}
    },
    { "type": "Feature",
      "geometry": {
        "type": "Point", "coordinates": [8.63424110514775, 50.1046796991502]},
        "properties": {"name": "Quäkerplatz"}
    },
    { "type": "Feature",
      "geometry": {
        "type": "Point", "coordinates": [8.63467640720593, 50.1172855378888]},
        "properties": {"name": "Voltastrasse Pocketpark Ost"}
    },
    { "type": "Feature",
      "geometry": {
        "type": "Point", "coordinates": [8.63476180931915, 50.1060568625949]},
        "properties": {"name": "Idsteiner Strasse Spielplatz"}
    },
    { "type": "Feature",
      "geometry": {
        "type": "Point", "coordinates": [8.63513062589982, 50.1127108815802]},
        "properties": {"name": "Funckstrasse"}
    },
    { "type": "Feature",
      "geometry": {
        "type": "Point", "coordinates": [8.63526735743813, 50.1554422673541]},
        "properties": {"name": "Ernst-Kahn Strasse Tiefgerage 3 a"}
    },
    { "type": "Feature",
      "geometry": {
        "type": "Point", "coordinates": [8.63611976017181, 50.0873341841282]},
        "properties": {"name": "Haardtwaldplatz Spielpl. Nr. 78"}
    },
    { "type": "Feature",
      "geometry": {
        "type": "Point", "coordinates": [8.63636321640842, 50.0865527832688]},
        "properties": {"name": "Haardtwaldplatz"}
    },
    { "type": "Feature",
      "geometry": {
        "type": "Point", "coordinates": [8.63584034859013, 50.1850130194917]},
        "properties": {"name": "Am Hasensprung Grünfläche"}
    },
    { "type": "Feature",
      "geometry": {
        "type": "Point", "coordinates": [8.63645629305125, 50.1167337219085]},
        "properties": {"name": "Galvanistr./Voltastrasse Kinderspielplatz"}
    },
    { "type": "Feature",
      "geometry": {
        "type": "Point", "coordinates": [8.6364379267686, 50.1246990995692]},
        "properties": {"name": "Rödelheimer Strasse Spielplatz Nr. 86"}
    },
    { "type": "Feature",
      "geometry": {
        "type": "Point", "coordinates": [8.63657055004978, 50.1256524892102]},
        "properties": {"name": "Kirchplatz Ochsengraben"}
    },
    { "type": "Feature",
      "geometry": {
        "type": "Point", "coordinates": [8.63655830129914, 50.1549698284687]},
        "properties": {"name": "Ernst-Kahn Strasse Tiefgarage 3 b"}
    },
    { "type": "Feature",
      "geometry": {
        "type": "Point", "coordinates": [8.63659406814597, 50.1502500413406]},
        "properties": {"name": "Baumhain südlich der Geschwister-Scholl-Schule"}
    },
    { "type": "Feature",
      "geometry": {
        "type": "Point", "coordinates": [8.63654424217678, 50.1660547894364]},
        "properties": {"name": "Obere Wiesen am Urselbach"}
    },
    { "type": "Feature",
      "geometry": {
        "type": "Point", "coordinates": [8.63660410399382, 50.1600045264934]},
        "properties": {"name": "Tacitusstrasse"}
    },
    { "type": "Feature",
      "geometry": {
        "type": "Point", "coordinates": [8.63728470620504, 50.1218248417774]},
        "properties": {"name": "Bernuspark"}
    },
    { "type": "Feature",
      "geometry": {
        "type": "Point", "coordinates": [8.63718041845097, 50.1559696941335]},
        "properties": {"name": "Rosa- Luxemburg Strasse( von Titusstrasse bis In der Römerstadt)"}
    },
    { "type": "Feature",
      "geometry": {
        "type": "Point", "coordinates": [8.63712252275352, 50.1876511687875]},
        "properties": {"name": "Freizeitpark Kalbach"}
    },
    { "type": "Feature",
      "geometry": {
        "type": "Point", "coordinates": [8.63734532514227, 50.1748677438482]},
        "properties": {"name": "Crutzenkirchweg"}
    },
    { "type": "Feature",
      "geometry": {
        "type": "Point", "coordinates": [8.63779584597278, 50.1245055549989]},
        "properties": {"name": "Appelsgasse Spielplatz Nr. 161"}
    },
    { "type": "Feature",
      "geometry": {
        "type": "Point", "coordinates": [8.63809865370813, 50.1232928046444]},
        "properties": {"name": "Kaufunger Strasse Spielplatz Nr. 470"}
    },
    { "type": "Feature",
      "geometry": {
        "type": "Point", "coordinates": [8.63775739707936, 50.1685039293811]},
        "properties": {"name": "Louis-Pasteur-Strasse Spielplatz"}
    },
    { "type": "Feature",
      "geometry": {
        "type": "Point", "coordinates": [8.63830929870273, 50.1046115275426]},
        "properties": {"name": "Frankenallee"}
    },
    { "type": "Feature",
      "geometry": {
        "type": "Point", "coordinates": [8.63853411976684, 50.0858762920621]},
        "properties": {"name": "Melibocusstrasse"}
    },
    { "type": "Feature",
      "geometry": {
        "type": "Point", "coordinates": [8.63792635416007, 50.186898497067]},
        "properties": {"name": "Kalbacher Stadtpfad"}
    },
    { "type": "Feature",
      "geometry": {
        "type": "Point", "coordinates": [8.63848594502878, 50.1182863954823]},
        "properties": {"name": "Alter Friedhof Bockenheim"}
    },
    { "type": "Feature",
      "geometry": {
        "type": "Point", "coordinates": [8.63873316166699, 50.1244545322844]},
        "properties": {"name": "Appelsgasse Nord (Spielplatz Nr. 129)"}
    },
    { "type": "Feature",
      "geometry": {
        "type": "Point", "coordinates": [8.63893320610714, 50.1536286920765]},
        "properties": {"name": "Am Forum"}
    },
    { "type": "Feature",
      "geometry": {
        "type": "Point", "coordinates": [8.63928014777786, 50.1242404645155]},
        "properties": {"name": "Grempstrasse Spielplatz 464"}
    },
    { "type": "Feature",
      "geometry": {
        "type": "Point", "coordinates": [8.63902157482941, 50.1660535229588]},
        "properties": {"name": "Walter-Abschlag-Weg"}
    },
    { "type": "Feature",
      "geometry": {
        "type": "Point", "coordinates": [8.63917883348957, 50.1767703946706]},
        "properties": {"name": "Prozessionsweg Spielplatz"}
    },
    { "type": "Feature",
      "geometry": {
        "type": "Point", "coordinates": [8.63957839422188, 50.1236300481297]},
        "properties": {"name": "Hülya Platz"}
    },
    { "type": "Feature",
      "geometry": {
        "type": "Point", "coordinates": [8.63982377160558, 50.0946459195763]},
        "properties": {"name": "Erntestrasse Spielplatz"}
    },
    { "type": "Feature",
      "geometry": {
        "type": "Point", "coordinates": [8.63992604927489, 50.0828598461033]},
        "properties": {"name": "August-Belz-Anlage"}
    },
    { "type": "Feature",
      "geometry": {
        "type": "Point", "coordinates": [8.6398565498362, 50.1014607198288]},
        "properties": {"name": "Kleyerstrasse Ecke Lahnstrasse"}
    },
    { "type": "Feature",
      "geometry": {
        "type": "Point", "coordinates": [8.63963077397843, 50.1501785889037]},
        "properties": {"name": "Arboretum an der Nidda Rosa- Luxemburg-Strasse"}
    },
    { "type": "Feature",
      "geometry": {
        "type": "Point", "coordinates": [8.63984812690361, 50.1230914651384]},
        "properties": {"name": "Kleine Seestrasse Spielplatz Nr. 376"}
    },
    { "type": "Feature",
      "geometry": {
        "type": "Point", "coordinates": [8.63987553234871, 50.1324864361884]},
        "properties": {"name": "An der Schwanenwiese"}
    },
    { "type": "Feature",
      "geometry": {
        "type": "Point", "coordinates": [8.6400681930422, 50.1179856383153]},
        "properties": {"name": "Ohmstraße 16 und 16 a"}
    },
    { "type": "Feature",
      "geometry": {
        "type": "Point", "coordinates": [8.64005039461054, 50.1240900185813]},
        "properties": {"name": "Grempstrasse"}
    },
    { "type": "Feature",
      "geometry": {
        "type": "Point", "coordinates": [8.6401432929554, 50.1247555906255]},
        "properties": {"name": "Hans-Eick-Weg Spielplatz Nr.8"}
    },
    { "type": "Feature",
      "geometry": {
        "type": "Point", "coordinates": [8.63994038535282, 50.1760265667484]},
        "properties": {"name": "Grünzug Crutzenkirche"}
    },
    { "type": "Feature",
      "geometry": {
        "type": "Point", "coordinates": [8.64135066231442, 50.0810571862645]},
        "properties": {"name": "Rudolf-Menzer-Anlage"}
    },
    { "type": "Feature",
      "geometry": {
        "type": "Point", "coordinates": [8.64101324692379, 50.1262326960282]},
        "properties": {"name": "Konrad-Broßwitz-Strasse"}
    },
    { "type": "Feature",
      "geometry": {
        "type": "Point", "coordinates": [8.64071820383818, 50.1749771156198]},
        "properties": {"name": "Am Bonifatiusbrunnen Spielplatz"}
    },
    { "type": "Feature",
      "geometry": {
        "type": "Point", "coordinates": [8.64122718691918, 50.1144470306792]},
        "properties": {"name": "Theodor-Heuss-Allee"}
    },
    { "type": "Feature",
      "geometry": {
        "type": "Point", "coordinates": [8.64085093682117, 50.1647376238852]},
        "properties": {"name": "Buber - Neumann - Weg"}
    },
    { "type": "Feature",
      "geometry": {
        "type": "Point", "coordinates": [8.64079091021994, 50.1727477583571]},
        "properties": {"name": "Durchgang Marie-Curie-Strasse/Olof-Palme-Strasse"}
    },
    { "type": "Feature",
      "geometry": {
        "type": "Point", "coordinates": [8.64089362119938, 50.1609079019537]},
        "properties": {"name": "Cohausenstrasse"}
    },
    { "type": "Feature",
      "geometry": {
        "type": "Point", "coordinates": [8.64077975238397, 50.177971057937]},
        "properties": {"name": "Bonifatiuspark"}
    },
    { "type": "Feature",
      "geometry": {
        "type": "Point", "coordinates": [8.64157581255097, 50.0770931166012]},
        "properties": {"name": "Waldfriedstrasse - Spielplatz"}
    },
    { "type": "Feature",
      "geometry": {
        "type": "Point", "coordinates": [8.64178854912999, 50.0785412272552]},
        "properties": {"name": "Paul -Gerhard Ring - Spielplatz Nr. 434"}
    },
    { "type": "Feature",
      "geometry": {
        "type": "Point", "coordinates": [8.64109233253656, 50.1885715118366]},
        "properties": {"name": "Kalbacher Hauptstrasse"}
    },
    { "type": "Feature",
      "geometry": {
        "type": "Point", "coordinates": [8.64221420489432, 50.0795404736507]},
        "properties": {"name": "Willemineallee - Bolzplatz"}
    },
    { "type": "Feature",
      "geometry": {
        "type": "Point", "coordinates": [8.64164506569547, 50.1670955248879]},
        "properties": {"name": "Urselbachaue Renaturierung"}
    },
    { "type": "Feature",
      "geometry": {
        "type": "Point", "coordinates": [8.64224643045254, 50.0902301436371]},
        "properties": {"name": "Im Mainfeld (Spielplatz)"}
    },
    { "type": "Feature",
      "geometry": {
        "type": "Point", "coordinates": [8.64166403893315, 50.1832780299767]},
        "properties": {"name": "Vogelschutzgehölz Kätcheslachmulde"}
    },
    { "type": "Feature",
      "geometry": {
        "type": "Point", "coordinates": [8.64189696789337, 50.1558584650842]},
        "properties": {"name": "In der Römerststadt vor Haus 72"}
    },
    { "type": "Feature",
      "geometry": {
        "type": "Point", "coordinates": [8.6423053358437, 50.1348763769313]},
        "properties": {"name": "Hinter Ginnheimer Landstrasse"}
    },
    { "type": "Feature",
      "geometry": {
        "type": "Point", "coordinates": [8.64247947749868, 50.120887973587]},
        "properties": {"name": "Kurfuerstenplatz"}
    },
    { "type": "Feature",
      "geometry": {
        "type": "Point", "coordinates": [8.64256536974061, 50.124376485642]},
        "properties": {"name": "Hessenplatz (Spielplatz135)"}
    },
    { "type": "Feature",
      "geometry": {
        "type": "Point", "coordinates": [8.6428804326366, 50.0857728654424]},
        "properties": {"name": "Kandelstrasse"}
    },
    { "type": "Feature",
      "geometry": {
        "type": "Point", "coordinates": [8.64266753048412, 50.1519770365523]},
        "properties": {"name": "Hadrianstrasse an der Nidda"}
    },
    { "type": "Feature",
      "geometry": {
        "type": "Point", "coordinates": [8.64325056777126, 50.0792020273839]},
        "properties": {"name": "Willemineallee - Gruenverbindung"}
    },
    { "type": "Feature",
      "geometry": {
        "type": "Point", "coordinates": [8.6429549443097, 50.1641147906347]},
        "properties": {"name": "Zeilweg"}
    },
    { "type": "Feature",
      "geometry": {
        "type": "Point", "coordinates": [8.64291324621505, 50.1903751672329]},
        "properties": {"name": "Im Brombeerfeld"}
    },
    { "type": "Feature",
      "geometry": {
        "type": "Point", "coordinates": [8.64321909396285, 50.1511875868423]},
        "properties": {"name": "Ginnheim gegenüber Hadrianstrasse"}
    },
    { "type": "Feature",
      "geometry": {
        "type": "Point", "coordinates": [8.64332355782873, 50.1409030126673]},
        "properties": {"name": "Reichelstrasse"}
    },
    { "type": "Feature",
      "geometry": {
        "type": "Point", "coordinates": [8.64385324322319, 50.0864860936725]},
        "properties": {"name": "Bruchfeldstraße"}
    },
    { "type": "Feature",
      "geometry": {
        "type": "Point", "coordinates": [8.64340577147686, 50.1543077880362]},
        "properties": {"name": "Römerstadt Bastionen An der Ringmauer"}
    },
    { "type": "Feature",
      "geometry": {
        "type": "Point", "coordinates": [8.64336723198013, 50.1895854217055]},
        "properties": {"name": "Heckenrosenweg"}
    },
    { "type": "Feature",
      "geometry": {
        "type": "Point", "coordinates": [8.64421553382086, 50.088510040482]},
        "properties": {"name": "Niederräder Kirchpfad Strassenspielplatz"}
    },
    { "type": "Feature",
      "geometry": {
        "type": "Point", "coordinates": [8.64420585756129, 50.1369949364214]},
        "properties": {"name": "August-Scheidel-Str."}
    },
    { "type": "Feature",
      "geometry": {
        "type": "Point", "coordinates": [8.64392946927297, 50.1779987338321]},
        "properties": {"name": "Pissaroweg Spielplatz"}
    },
    { "type": "Feature",
      "geometry": {
        "type": "Point", "coordinates": [8.64479913338503, 50.0870643755389]},
        "properties": {"name": "Bruchfeldplatz"}
    },
    { "type": "Feature",
      "geometry": {
        "type": "Point", "coordinates": [8.64420561452451, 50.1879427803897]},
        "properties": {"name": "Kalbacher Hauptstrasse Verkehrsgrün"}
    },
    { "type": "Feature",
      "geometry": {
        "type": "Point", "coordinates": [8.64516029894572, 50.1214176340718]},
        "properties": {"name": "Rohmerplatz Platz, Rohmerstrasse"}
    },
    { "type": "Feature",
      "geometry": {
        "type": "Point", "coordinates": [8.64512918686032, 50.129409937367]},
        "properties": {"name": "Margarete-und-Fritz-Kahl-Anlage"}
    },
    { "type": "Feature",
      "geometry": {
        "type": "Point", "coordinates": [8.64529724623486, 50.1066649013397]},
        "properties": {"name": "Hellerhofstrasse"}
    },
    { "type": "Feature",
      "geometry": {
        "type": "Point", "coordinates": [8.64521342113717, 50.1671963793065]},
        "properties": {"name": "An der Sandelmühle nördlich"}
    },
    { "type": "Feature",
      "geometry": {
        "type": "Point", "coordinates": [8.64556314650181, 50.1217784773406]},
        "properties": {"name": "Rohmerplatz Spielplatz 330"}
    },
    { "type": "Feature",
      "geometry": {
        "type": "Point", "coordinates": [8.6452103993963, 50.1770586767371]},
        "properties": {"name": "Grünzug am Zubringer zur A661"}
    },
    { "type": "Feature",
      "geometry": {
        "type": "Point", "coordinates": [8.6454732960359, 50.1566605786415]},
        "properties": {"name": "In der Römerstadt 21"}
    },
    { "type": "Feature",
      "geometry": {
        "type": "Point", "coordinates": [8.64564249128325, 50.1602751846934]},
        "properties": {"name": "Karl-Perotte-Platz"}
    },
    { "type": "Feature",
      "geometry": {
        "type": "Point", "coordinates": [8.64616247651168, 50.093577571869]},
        "properties": {"name": "Licht- und Luftbad Niederrad"}
    },
    { "type": "Feature",
      "geometry": {
        "type": "Point", "coordinates": [8.64636715256541, 50.07525578567]},
        "properties": {"name": "Carl von Weinbergpark"}
    },
    { "type": "Feature",
      "geometry": {
        "type": "Point", "coordinates": [8.64601704667429, 50.1550349965929]},
        "properties": {"name": "Römerstadt Grünanlagen an der Nidda"}
    },
    { "type": "Feature",
      "geometry": {
        "type": "Point", "coordinates": [8.64676240037718, 50.089911324884]},
        "properties": {"name": "Elli-Lucht-Park"}
    },
    { "type": "Feature",
      "geometry": {
        "type": "Point", "coordinates": [8.6462250477895, 50.1723598709344]},
        "properties": {"name": "Riedwiesen NSG"}
    },
    { "type": "Feature",
      "geometry": {
        "type": "Point", "coordinates": [8.64659155767786, 50.1397352719104]},
        "properties": {"name": "Ginnheimer Landstrasse"}
    },
    { "type": "Feature",
      "geometry": {
        "type": "Point", "coordinates": [8.64725648715278, 50.1063651968387]},
        "properties": {"name": "Gutenbergstrasse"}
    },
    { "type": "Feature",
      "geometry": {
        "type": "Point", "coordinates": [8.64739103162178, 50.1204085204794]},
        "properties": {"name": "Leipziger Ladengalerie"}
    },
    { "type": "Feature",
      "geometry": {
        "type": "Point", "coordinates": [8.647875537019, 50.1191693245135]},
        "properties": {"name": "Adalbertstr. Kinderspielplatz"}
    },
    { "type": "Feature",
      "geometry": {
        "type": "Point", "coordinates": [8.64846202832541, 50.096353590197]},
        "properties": {"name": "Sommerhoffpark"}
    },
    { "type": "Feature",
      "geometry": {
        "type": "Point", "coordinates": [8.64785043126891, 50.1873785092465]},
        "properties": {"name": "Kalbacher Hauptstrasse/Landesstrasse"}
    },
    { "type": "Feature",
      "geometry": {
        "type": "Point", "coordinates": [8.64848319176619, 50.1297527780365]},
        "properties": {"name": "Lilienthalallee"}
    },
    { "type": "Feature",
      "geometry": {
        "type": "Point", "coordinates": [8.64819446697532, 50.1843858046658]},
        "properties": {"name": "Kalbach In den Seewiesen"}
    },
    { "type": "Feature",
      "geometry": {
        "type": "Point", "coordinates": [8.64878887521691, 50.1166458057674]},
        "properties": {"name": "Theodor-W.-Adorno- Platz"}
    },
    { "type": "Feature",
      "geometry": {
        "type": "Point", "coordinates": [8.64883467616634, 50.118030456034]},
        "properties": {"name": "Gräfstraße/Kiesstraße(Spielplatz)"}
    },
    { "type": "Feature",
      "geometry": {
        "type": "Point", "coordinates": [8.64936998093171, 50.1270583627044]},
        "properties": {"name": "Zeppelinallee"}
    },
    { "type": "Feature",
      "geometry": {
        "type": "Point", "coordinates": [8.64989015674833, 50.0768128108619]},
        "properties": {"name": "Waldfriedstrasse/Golfstrasse"}
    },
    { "type": "Feature",
      "geometry": {
        "type": "Point", "coordinates": [8.64939589704435, 50.157967082743]},
        "properties": {"name": "Heddernheim Stiftsgarten"}
    },
    { "type": "Feature",
      "geometry": {
        "type": "Point", "coordinates": [8.6494160369281, 50.1647817667223]},
        "properties": {"name": "An der Sandelmühle Vogelschutzgehölz"}
    },
    { "type": "Feature",
      "geometry": {
        "type": "Point", "coordinates": [8.64926756929261, 50.1965438305616]},
        "properties": {"name": "Am Martinszehnten Grünzug am Frischemarkt"}
    },
    { "type": "Feature",
      "geometry": {
        "type": "Point", "coordinates": [8.64996791258533, 50.1486189159778]},
        "properties": {"name": "Am Ginnheimer Hang rechts"}
    },
    { "type": "Feature",
      "geometry": {
        "type": "Point", "coordinates": [8.65041334116342, 50.087476990129]},
        "properties": {"name": "Rennbahnstrasse Ecke Bruchfeldstrasse"}
    },
    { "type": "Feature",
      "geometry": {
        "type": "Point", "coordinates": [8.65045776102658, 50.0852115471308]},
        "properties": {"name": "Rennbahnstrasse Knotenpunkt"}
    },
    { "type": "Feature",
      "geometry": {
        "type": "Point", "coordinates": [8.65028778348526, 50.1316102303399]},
        "properties": {"name": "Ginnheimerhöhe zwischen Frauenlobstrasse und A 66"}
    },
    { "type": "Feature",
      "geometry": {
        "type": "Point", "coordinates": [8.65012512884876, 50.1635072869105]},
        "properties": {"name": "An der Sandelmühle"}
    },
    { "type": "Feature",
      "geometry": {
        "type": "Point", "coordinates": [8.65067403173794, 50.138111385882]},
        "properties": {"name": "Am Eisernen Schlag bis Rebgärten"}
    },
    { "type": "Feature",
      "geometry": {
        "type": "Point", "coordinates": [8.6510626233703, 50.1135240212389]},
        "properties": {"name": "Merkurbrunnen"}
    },
    { "type": "Feature",
      "geometry": {
        "type": "Point", "coordinates": [8.65075108610895, 50.1601917617771]},
        "properties": {"name": "Maybachbrücke 1. Abschnitt"}
    },
    { "type": "Feature",
      "geometry": {
        "type": "Point", "coordinates": [8.65154799217128, 50.1448926958875]},
        "properties": {"name": "Ginnheimer Hohl Kirchplatz und alter Friedhof"}
    },
    { "type": "Feature",
      "geometry": {
        "type": "Point", "coordinates": [8.65157778148187, 50.1504218129096]},
        "properties": {"name": "Am Rotzlöffel"}
    },
    { "type": "Feature",
      "geometry": {
        "type": "Point", "coordinates": [8.65203904713299, 50.1138326223786]},
        "properties": {"name": "Ludwig-Erhard-Anlage"}
    },
    { "type": "Feature",
      "geometry": {
        "type": "Point", "coordinates": [8.65181923510386, 50.1672703057715]},
        "properties": {"name": "Gegen das Feld an der Nidda"}
    },
    { "type": "Feature",
      "geometry": {
        "type": "Point", "coordinates": [8.65227899790217, 50.1482662452877]},
        "properties": {"name": "Höhenblick"}
    },
    { "type": "Feature",
      "geometry": {
        "type": "Point", "coordinates": [8.65255183899137, 50.1163874138785]},
        "properties": {"name": "Senckenberganlage"}
    },
    { "type": "Feature",
      "geometry": {
        "type": "Point", "coordinates": [8.65289116780295, 50.1332722568574]},
        "properties": {"name": "Ginnheimer-Höhe"}
    },
    { "type": "Feature",
      "geometry": {
        "type": "Point", "coordinates": [8.65291556241468, 50.1705010880554]},
        "properties": {"name": "Das Heilige Gewann A661"}
    },
    { "type": "Feature",
      "geometry": {
        "type": "Point", "coordinates": [8.65304870688059, 50.1540403085665]},
        "properties": {"name": "An der Hecke"}
    },
    { "type": "Feature",
      "geometry": {
        "type": "Point", "coordinates": [8.65318690283809, 50.2026329750787]},
        "properties": {"name": "Anna-Lindh-Allee"}
    },
    { "type": "Feature",
      "geometry": {
        "type": "Point", "coordinates": [8.65405020652029, 50.1529285006608]},
        "properties": {"name": "Höllbergstrasse"}
    },
    { "type": "Feature",
      "geometry": {
        "type": "Point", "coordinates": [8.65464858555875, 50.1009032968636]},
        "properties": {"name": "Heilbronner Strasse"}
    },
    { "type": "Feature",
      "geometry": {
        "type": "Point", "coordinates": [8.65447994615306, 50.1593128751039]},
        "properties": {"name": "Maybachstrasse"}
    },
    { "type": "Feature",
      "geometry": {
        "type": "Point", "coordinates": [8.65491625461054, 50.1122858778914]},
        "properties": {"name": "Friedrich-Ebert-Anlage"}
    },
    { "type": "Feature",
      "geometry": {
        "type": "Point", "coordinates": [8.65462842038346, 50.1911477769157]},
        "properties": {"name": "Am Martinszehnten Grünzug am Sunflower"}
    },
    { "type": "Feature",
      "geometry": {
        "type": "Point", "coordinates": [8.65556712833611, 50.1014544367849]},
        "properties": {"name": "Heidelbergerstrasse"}
    },
    { "type": "Feature",
      "geometry": {
        "type": "Point", "coordinates": [8.65579990796329, 50.1079821243337]},
        "properties": {"name": "Güterplatz"}
    },
    { "type": "Feature",
      "geometry": {
        "type": "Point", "coordinates": [8.6557560218057, 50.1180062252917]},
        "properties": {"name": "Christuskirche"}
    },
    { "type": "Feature",
      "geometry": {
        "type": "Point", "coordinates": [8.65629915456407, 50.11440270884]},
        "properties": {"name": "Beethovenstrasse"}
    },
    { "type": "Feature",
      "geometry": {
        "type": "Point", "coordinates": [8.65627664826581, 50.1273127553935]},
        "properties": {"name": "Frauenlobstrasse/Ecke Miquelallee"}
    },
    { "type": "Feature",
      "geometry": {
        "type": "Point", "coordinates": [8.65619164362982, 50.1391797134994]},
        "properties": {"name": "Platenstrasse"}
    },
    { "type": "Feature",
      "geometry": {
        "type": "Point", "coordinates": [8.65632274266252, 50.1462644544741]},
        "properties": {"name": "Fritz-von-Unruh Anlage"}
    },
    { "type": "Feature",
      "geometry": {
        "type": "Point", "coordinates": [8.65632612433991, 50.1770291563639]},
        "properties": {"name": "Am Burghof alter Hubschrauberlandeplatz"}
    },
    { "type": "Feature",
      "geometry": {
        "type": "Point", "coordinates": [8.65649827104878, 50.1569184577967]},
        "properties": {"name": "Eschersheimer Landstrasse / Am Weissen Stein"}
    },
    { "type": "Feature",
      "geometry": {
        "type": "Point", "coordinates": [8.65678930369591, 50.1416717937956]},
        "properties": {"name": "Sudermannstrasse Spielplatz"}
    },
    { "type": "Feature",
      "geometry": {
        "type": "Point", "coordinates": [8.65729439128842, 50.0905272596624]},
        "properties": {"name": "Buchenrode Park"}
    },
    { "type": "Feature",
      "geometry": {
        "type": "Point", "coordinates": [8.65767266564439, 50.1021619105093]},
        "properties": {"name": "Spielplatz Schönstrasse"}
    },
    { "type": "Feature",
      "geometry": {
        "type": "Point", "coordinates": [8.65817814567382, 50.0979109585239]},
        "properties": {"name": "Karpfenweg"}
    },
    { "type": "Feature",
      "geometry": {
        "type": "Point", "coordinates": [8.65845615866813, 50.1020563331206]},
        "properties": {"name": "Schönstrasse 7 Spielplatz"}
    },
    { "type": "Feature",
      "geometry": {
        "type": "Point", "coordinates": [8.65868385071458, 50.1073882824833]},
        "properties": {"name": "Saar Caree Niddastrasse"}
    },
    { "type": "Feature",
      "geometry": {
        "type": "Point", "coordinates": [8.65848649816498, 50.162651120975]},
        "properties": {"name": "Lachweg"}
    },
    { "type": "Feature",
      "geometry": {
        "type": "Point", "coordinates": [8.65836952879217, 50.1810268488708]},
        "properties": {"name": "Am Burghof Vogelschutzgehölz"}
    },
    { "type": "Feature",
      "geometry": {
        "type": "Point", "coordinates": [8.65848239775526, 50.1966162293409]},
        "properties": {"name": "Zuericher Strasse"}
    },
    { "type": "Feature",
      "geometry": {
        "type": "Point", "coordinates": [8.65896984911003, 50.1655294247517]},
        "properties": {"name": "Birkholzweg"}
    },
    { "type": "Feature",
      "geometry": {
        "type": "Point", "coordinates": [8.65976238352831, 50.0893208162158]},
        "properties": {"name": "Buchenrodestrasse"}
    },
    { "type": "Feature",
      "geometry": {
        "type": "Point", "coordinates": [8.65937278547885, 50.1482153403734]},
        "properties": {"name": "Chamissostrasse/ Theodor-Storm-Strasse"}
    },
    { "type": "Feature",
      "geometry": {
        "type": "Point", "coordinates": [8.65963639582103, 50.1327527994278]},
        "properties": {"name": "Miquelanlage"}
    },
    { "type": "Feature",
      "geometry": {
        "type": "Point", "coordinates": [8.65958713885889, 50.1436399109945]},
        "properties": {"name": "Marie-Bittorf-Anlage"}
    },
    { "type": "Feature",
      "geometry": {
        "type": "Point", "coordinates": [8.65974056210136, 50.1377876763423]},
        "properties": {"name": "Platenstraße Bolzplatz"}
    },
    { "type": "Feature",
      "geometry": {
        "type": "Point", "coordinates": [8.65969584908881, 50.1815521746858]},
        "properties": {"name": "Grünanlage Ludwig Ruppel Strasse"}
    },
    { "type": "Feature",
      "geometry": {
        "type": "Point", "coordinates": [8.66044689577723, 50.1031949558251]},
        "properties": {"name": "Behördenzentrum"}
    },
    { "type": "Feature",
      "geometry": {
        "type": "Point", "coordinates": [8.66086449298235, 50.1014610370934]},
        "properties": {"name": "Rottweiler Strasse"}
    },
    { "type": "Feature",
      "geometry": {
        "type": "Point", "coordinates": [8.661070533809, 50.1019740890306]},
        "properties": {"name": "Gutleutstrasse 147"}
    },
    { "type": "Feature",
      "geometry": {
        "type": "Point", "coordinates": [8.66094415420991, 50.1535331942499]},
        "properties": {"name": "Am Lindenbaum Ecke Eschersheimer"}
    },
    { "type": "Feature",
      "geometry": {
        "type": "Point", "coordinates": [8.66118701192454, 50.1270754539203]},
        "properties": {"name": "Grüneburgpark"}
    },
    { "type": "Feature",
      "geometry": {
        "type": "Point", "coordinates": [8.66084209555658, 50.1877408045637]},
        "properties": {"name": "Ben- Gurion-Ring Grünzug"}
    },